{"stations":[{"id":"pl_29947504","name":"Petro (zamknięta od 2024r.)","brand":"Petro","lat":52.3168319,"lng":15.0394109,"address":"","city":"","region":"","services":[],"opening_hours":"","p":{"n95":6.38,"n98":null,"on":6.38,"lpg":null,"src":"estimate","at":"2026-05-06T09:49:15+00:00"}},{"id":"pl_30079118","name":"Moya","brand":"Moya","lat":52.3219068,"lng":15.6799709,"address":"","city":"","region":"","services":[],"opening_hours":"","p":{"n95":6.23,"n98":null,"on":6.23,"lpg":2.89,"src":"estimate","at":"2026-05-06T09:49:15+00:00"}},{"id":"pl_30093004","name":"Stacja paliw","brand":"Stacja paliw","lat":52.1445616,"lng":19.4718212,"address":"","city":"","region":"","services":[],"opening_hours":"","p":{"n95":6.38,"n98":null,"on":6.38,"lpg":null,"src":"estimate","at":"2026-05-06T09:49:15+00:00"}},{"id":"pl_32118559","name":"Circle K","brand":"Circle K","lat":52.9492411,"lng":16.9464728,"address":"","city":"","region":"","services":["lpg","adblue"],"opening_hours":"24/7","p":{"n95":6.63,"n98":7.07,"on":6.63,"lpg":2.89,"src":"estimate","at":"2026-05-06T09:49:15+00:00"}},{"id":"pl_36449577","name":"Orlen","brand":"Orlen","lat":51.7523209,"lng":21.3849953,"address":"","city":"","region":"","services":[],"opening_hours":"24/7","p":{"n95":6.43,"n98":6.87,"on":6.43,"lpg":2.89,"src":"estimate","at":"2026-05-06T09:49:15+00:00"}},{"id":"pl_82780467","name":"Orlen","brand":"Orlen","lat":53.8438622,"lng":21.2216248,"address":"","city":"","region":"","services":[],"opening_hours":"","p":{"n95":6.43,"n98":6.87,"on":6.43,"lpg":2.89,"src":"estimate","at":"2026-05-06T09:49:15+00:00"}},{"id":"pl_82780563","name":"BP Kromerowo","brand":"BP","lat":53.8282632,"lng":20.8228698,"address":"","city":"","region":"","services":["lpg"],"opening_hours":"","p":{"n95":6.68,"n98":7.12,"on":6.68,"lpg":2.89,"src":"estimate","at":"2026-05-06T09:49:15+00:00"}},{"id":"pl_82782336","name":"Orlen","brand":"Orlen","lat":53.2087312,"lng":19.1713576,"address":"92","city":"Wrocki","region":"","services":["lpg","adblue"],"opening_hours":"24/7","p":{"n95":6.43,"n98":6.87,"on":6.43,"lpg":2.89,"src":"estimate","at":"2026-05-06T09:49:15+00:00"}},{"id":"pl_82782366","name":"Amic","brand":"Amic","lat":53.1875015,"lng":19.0367329,"address":"22","city":"Lipnica","region":"","services":["lpg"],"opening_hours":"","p":{"n95":6.28,"n98":null,"on":6.28,"lpg":2.89,"src":"estimate","at":"2026-05-06T09:49:15+00:00"}},{"id":"pl_83853766","name":"Watis","brand":"Watis","lat":52.9946473,"lng":18.4664537,"address":"","city":"","region":"","services":["lpg"],"opening_hours":"24/7","p":{"n95":6.38,"n98":null,"on":6.38,"lpg":null,"src":"estimate","at":"2026-05-06T09:49:15+00:00"}},{"id":"pl_95003080","name":"Orlen","brand":"Orlen","lat":52.2444232,"lng":20.9672299,"address":"","city":"","region":"","services":[],"opening_hours":"24/7","p":{"n95":6.43,"n98":6.87,"on":6.43,"lpg":2.89,"src":"estimate","at":"2026-05-06T09:49:15+00:00"}},{"id":"pl_126091163","name":"Stacja paliw","brand":"Stacja paliw","lat":50.8793907,"lng":14.8251487,"address":"","city":"","region":"","services":[],"opening_hours":"","p":{"n95":6.38,"n98":null,"on":6.38,"lpg":null,"src":"estimate","at":"2026-05-06T09:49:15+00:00"}},{"id":"pl_142131640","name":"BP","brand":"BP","lat":53.7640661,"lng":20.4946904,"address":"Wincentego Pstrowskiego 20","city":"Olsztyn","region":"","services":["lpg"],"opening_hours":"","p":{"n95":6.68,"n98":7.12,"on":6.68,"lpg":2.89,"src":"estimate","at":"2026-05-06T09:49:15+00:00"}},{"id":"pl_142132191","name":"Ochman","brand":"Ochman","lat":53.7639214,"lng":20.4647994,"address":"","city":"","region":"","services":[],"opening_hours":"","p":{"n95":6.38,"n98":null,"on":6.38,"lpg":null,"src":"estimate","at":"2026-05-06T09:49:15+00:00"}},{"id":"pl_142413031","name":"Shell","brand":"Shell","lat":52.3862894,"lng":16.9120705,"address":"Romualda Traugutta 1/3","city":"Poznań","region":"","services":["lpg","adblue"],"opening_hours":"24/7","p":{"n95":6.73,"n98":7.17,"on":6.73,"lpg":null,"src":"estimate","at":"2026-05-06T09:49:15+00:00"}},{"id":"pl_152740338","name":"Auchan","brand":"Auchan","lat":52.2414636,"lng":20.927544,"address":"","city":"","region":"","services":[],"opening_hours":"24/7","p":{"n95":6.13,"n98":null,"on":6.13,"lpg":null,"src":"estimate","at":"2026-05-06T09:49:15+00:00"}},{"id":"pl_158796563","name":"MOL","brand":"MOL","lat":52.5438204,"lng":17.6027557,"address":"Franciszka Żwirki i Stanisława Wigury 32","city":"Gniezno","region":"","services":[],"opening_hours":"","p":{"n95":6.38,"n98":null,"on":6.38,"lpg":null,"src":"estimate","at":"2026-05-06T09:49:15+00:00"}},{"id":"pl_165131630","name":"Shell","brand":"Shell","lat":51.1382689,"lng":17.0820828,"address":"aleja Aleksandra Brücknera 53","city":"Wrocław","region":"","services":["lpg","adblue"],"opening_hours":"24/7","p":{"n95":6.73,"n98":7.17,"on":6.73,"lpg":null,"src":"estimate","at":"2026-05-06T09:49:15+00:00"}},{"id":"pl_178851632","name":"BP","brand":"BP","lat":51.0940478,"lng":16.9795599,"address":"Grabiszyńska 266","city":"","region":"","services":["lpg"],"opening_hours":"24/7","p":{"n95":6.68,"n98":7.12,"on":6.68,"lpg":2.89,"src":"estimate","at":"2026-05-06T09:49:15+00:00"}},{"id":"pl_190073595","name":"Shell","brand":"Shell","lat":51.1766461,"lng":15.0321088,"address":"","city":"","region":"","services":[],"opening_hours":"24/7","p":{"n95":6.73,"n98":7.17,"on":6.73,"lpg":null,"src":"estimate","at":"2026-05-06T09:49:15+00:00"}},{"id":"pl_192475635","name":"Shell","brand":"Shell","lat":52.4105909,"lng":16.8682971,"address":"Bułgarska 119","city":"Poznań","region":"","services":["lpg","adblue"],"opening_hours":"24/7","p":{"n95":6.73,"n98":7.17,"on":6.73,"lpg":null,"src":"estimate","at":"2026-05-06T09:49:15+00:00"}},{"id":"pl_197997892","name":"MOL","brand":"MOL","lat":52.3937243,"lng":16.8856586,"address":"Józefa Chociszewskiego 49","city":"Poznań","region":"","services":["lpg"],"opening_hours":"24/7","p":{"n95":6.38,"n98":null,"on":6.38,"lpg":null,"src":"estimate","at":"2026-05-06T09:49:15+00:00"}},{"id":"pl_207628405","name":"Orlen","brand":"Orlen","lat":52.2339823,"lng":20.9849535,"address":"Grzybowska 74","city":"","region":"","services":[],"opening_hours":"24/7","p":{"n95":6.43,"n98":6.87,"on":6.43,"lpg":2.89,"src":"estimate","at":"2026-05-06T09:49:15+00:00"}},{"id":"pl_211421239","name":"Orlen","brand":"Orlen","lat":52.0881411,"lng":17.393979,"address":"Poznańska 47","city":"Nowe Miasto nad Wartą","region":"","services":["lpg"],"opening_hours":"24/7","p":{"n95":6.43,"n98":6.87,"on":6.43,"lpg":2.89,"src":"estimate","at":"2026-05-06T09:49:15+00:00"}},{"id":"pl_236101751","name":"Orlen","brand":"Orlen","lat":50.0896573,"lng":19.8931029,"address":"","city":"","region":"","services":[],"opening_hours":"Mo-Su,PH 06:00-22:00","p":{"n95":6.43,"n98":6.87,"on":6.43,"lpg":2.89,"src":"estimate","at":"2026-05-06T09:49:15+00:00"}},{"id":"pl_238534832","name":"BP Cybina","brand":"BP","lat":52.403522,"lng":17.0541281,"address":"","city":"","region":"","services":["lpg","adblue"],"opening_hours":"24/7","p":{"n95":6.68,"n98":7.12,"on":6.68,"lpg":2.89,"src":"estimate","at":"2026-05-06T09:49:15+00:00"}},{"id":"pl_243628594","name":"Pieprzyk","brand":"Moc Jakość Zysk","lat":51.0956194,"lng":16.9623217,"address":"","city":"","region":"","services":["lpg"],"opening_hours":"24/7","p":{"n95":6.38,"n98":null,"on":6.38,"lpg":null,"src":"estimate","at":"2026-05-06T09:49:15+00:00"}},{"id":"pl_243691232","name":"Orlen","brand":"Orlen","lat":49.8658097,"lng":19.9113884,"address":"Jawornik","city":"Jawornik","region":"","services":["lpg"],"opening_hours":"","p":{"n95":6.43,"n98":6.87,"on":6.43,"lpg":2.89,"src":"estimate","at":"2026-05-06T09:49:15+00:00"}},{"id":"pl_246814960","name":"Orlen","brand":"Orlen","lat":52.1480031,"lng":21.0595701,"address":"","city":"","region":"","services":[],"opening_hours":"24/7","p":{"n95":6.43,"n98":6.87,"on":6.43,"lpg":2.89,"src":"estimate","at":"2026-05-06T09:49:15+00:00"}},{"id":"pl_247236427","name":"Orlen","brand":"Orlen","lat":52.8156082,"lng":17.2185327,"address":"","city":"","region":"","services":["lpg"],"opening_hours":"24/7","p":{"n95":6.43,"n98":6.87,"on":6.43,"lpg":2.89,"src":"estimate","at":"2026-05-06T09:49:15+00:00"}},{"id":"pl_247286406","name":"BP","brand":"BP","lat":52.2428305,"lng":21.0982346,"address":"Grochowska 149/151","city":"Warszawa","region":"","services":["lpg"],"opening_hours":"24/7","p":{"n95":6.68,"n98":7.12,"on":6.68,"lpg":2.89,"src":"estimate","at":"2026-05-06T09:49:15+00:00"}},{"id":"pl_247286407","name":"Orlen","brand":"Orlen","lat":52.2442364,"lng":21.0961751,"address":"Nasielska 1","city":"","region":"","services":[],"opening_hours":"Mo-Sa 06:00-22:00; Su 07:00-17:00","p":{"n95":6.43,"n98":6.87,"on":6.43,"lpg":2.89,"src":"estimate","at":"2026-05-06T09:49:15+00:00"}},{"id":"pl_251464303","name":"U Emila","brand":"U Emila","lat":50.9791129,"lng":16.3695252,"address":"","city":"","region":"","services":[],"opening_hours":"","p":{"n95":6.38,"n98":null,"on":6.38,"lpg":null,"src":"estimate","at":"2026-05-06T09:49:15+00:00"}},{"id":"pl_251693230","name":"Orlen","brand":"Orlen","lat":50.055122,"lng":19.9251924,"address":"","city":"","region":"","services":[],"opening_hours":"24/7","p":{"n95":6.43,"n98":6.87,"on":6.43,"lpg":2.89,"src":"estimate","at":"2026-05-06T09:49:15+00:00"}},{"id":"pl_253041827","name":"Orlen","brand":"Orlen","lat":52.1658681,"lng":21.0158993,"address":"Aleja Wyścigowa 2","city":"Warszawa","region":"","services":[],"opening_hours":"24/7","p":{"n95":6.43,"n98":6.87,"on":6.43,"lpg":2.89,"src":"estimate","at":"2026-05-06T09:49:15+00:00"}},{"id":"pl_254021620","name":"Orlen","brand":"Orlen","lat":52.17659,"lng":21.0451493,"address":"","city":"","region":"","services":[],"opening_hours":"","p":{"n95":6.43,"n98":6.87,"on":6.43,"lpg":2.89,"src":"estimate","at":"2026-05-06T09:49:15+00:00"}},{"id":"pl_254025081","name":"Circle K","brand":"Circle K","lat":52.2373381,"lng":21.1190191,"address":"Grochowska 19","city":"","region":"","services":["lpg"],"opening_hours":"24/7","p":{"n95":6.63,"n98":7.07,"on":6.63,"lpg":2.89,"src":"estimate","at":"2026-05-06T09:49:15+00:00"}},{"id":"pl_254451731","name":"Orlen","brand":"Orlen","lat":52.216499,"lng":20.9985763,"address":"","city":"","region":"","services":[],"opening_hours":"24/7","p":{"n95":6.43,"n98":6.87,"on":6.43,"lpg":2.89,"src":"estimate","at":"2026-05-06T09:49:15+00:00"}},{"id":"pl_254762158","name":"Orlen","brand":"Orlen","lat":53.032461,"lng":16.4699891,"address":"","city":"","region":"","services":["lpg","adblue"],"opening_hours":"24/7","p":{"n95":6.43,"n98":6.87,"on":6.43,"lpg":2.89,"src":"estimate","at":"2026-05-06T09:49:15+00:00"}},{"id":"pl_255205028","name":"MOL","brand":"MOL","lat":52.4428034,"lng":16.9441431,"address":"Naramowicka 131","city":"Poznań","region":"","services":["lpg","car_wash"],"opening_hours":"","p":{"n95":6.38,"n98":null,"on":6.38,"lpg":null,"src":"estimate","at":"2026-05-06T09:49:15+00:00"}},{"id":"pl_255239721","name":"Orlen","brand":"Orlen","lat":54.1769604,"lng":16.1968882,"address":"Gnieźnieńska 34","city":"Koszalin","region":"","services":["lpg","car_wash"],"opening_hours":"24/7","p":{"n95":6.43,"n98":6.87,"on":6.43,"lpg":2.89,"src":"estimate","at":"2026-05-06T09:49:15+00:00"}},{"id":"pl_255239739","name":"MZK","brand":"MZK","lat":54.1807224,"lng":16.1941954,"address":"","city":"","region":"","services":[],"opening_hours":"Mo-Fr 06:00-18:00; Sa,Su 10:00-18:00","p":{"n95":6.38,"n98":null,"on":6.38,"lpg":null,"src":"estimate","at":"2026-05-06T09:49:15+00:00"}},{"id":"pl_255594959","name":"Orlen","brand":"Orlen","lat":52.2365721,"lng":21.0874871,"address":"","city":"","region":"","services":[],"opening_hours":"24/7","p":{"n95":6.43,"n98":6.87,"on":6.43,"lpg":2.89,"src":"estimate","at":"2026-05-06T09:49:15+00:00"}},{"id":"pl_256257831","name":"Shell","brand":"Shell","lat":52.2334578,"lng":21.1301065,"address":"","city":"","region":"","services":[],"opening_hours":"PH,Mo-Su 06:00-22:00","p":{"n95":6.73,"n98":7.17,"on":6.73,"lpg":null,"src":"estimate","at":"2026-05-06T09:49:15+00:00"}},{"id":"pl_258477142","name":"AB","brand":"AB","lat":50.8751849,"lng":14.8270351,"address":"Aleja Trzech Państw 2","city":"Kopaczów","region":"","services":[],"opening_hours":"","p":{"n95":6.38,"n98":null,"on":6.38,"lpg":null,"src":"estimate","at":"2026-05-06T09:49:15+00:00"}},{"id":"pl_258623659","name":"Orlen","brand":"Orlen","lat":51.1573324,"lng":15.0282085,"address":"Słowiańska 1","city":"Zgorzelec","region":"","services":["lpg","adblue"],"opening_hours":"24/7","p":{"n95":6.43,"n98":6.87,"on":6.43,"lpg":2.89,"src":"estimate","at":"2026-05-06T09:49:15+00:00"}},{"id":"pl_258623712","name":"Areca","brand":"Areca","lat":51.1605036,"lng":15.0286272,"address":"","city":"","region":"","services":["lpg"],"opening_hours":"","p":{"n95":6.38,"n98":null,"on":6.38,"lpg":null,"src":"estimate","at":"2026-05-06T09:49:15+00:00"}},{"id":"pl_260004489","name":"Circle K","brand":"Circle K","lat":52.1363229,"lng":20.8957696,"address":"","city":"","region":"","services":[],"opening_hours":"","p":{"n95":6.63,"n98":7.07,"on":6.63,"lpg":2.89,"src":"estimate","at":"2026-05-06T09:49:15+00:00"}},{"id":"pl_261666236","name":"Circle K Express","brand":"Circle K","lat":52.1424417,"lng":21.0237812,"address":"Puławska 427","city":"Warszawa","region":"","services":["lpg"],"opening_hours":"24/7","p":{"n95":6.63,"n98":7.07,"on":6.63,"lpg":2.89,"src":"estimate","at":"2026-05-06T09:49:15+00:00"}},{"id":"pl_262409334","name":"Amic","brand":"Amic Energy","lat":52.375102,"lng":16.8691644,"address":"","city":"","region":"","services":["lpg"],"opening_hours":"24/7","p":{"n95":6.28,"n98":null,"on":6.28,"lpg":2.89,"src":"estimate","at":"2026-05-06T09:49:15+00:00"}},{"id":"pl_262639796","name":"BP Ikar","brand":"BP","lat":50.2987945,"lng":18.6890583,"address":"Generała Jarosława Dąbrowskiego 18","city":"Gliwice","region":"","services":["lpg"],"opening_hours":"PH,Mo-Su 12:00","p":{"n95":6.49,"n98":7.12,"on":6.68,"lpg":2.89,"src":"cenapaliw.pl","at":"2026-05-06T09:49:15+00:00"}},{"id":"pl_264266441","name":"Orlen","brand":"Orlen","lat":52.3825463,"lng":16.8828075,"address":"Zgoda 19","city":"Poznań","region":"","services":["lpg"],"opening_hours":"24/7","p":{"n95":6.43,"n98":6.87,"on":6.43,"lpg":2.89,"src":"estimate","at":"2026-05-06T09:49:15+00:00"}},{"id":"pl_264272851","name":"BP","brand":"BP","lat":52.4337763,"lng":16.801046,"address":"","city":"","region":"","services":["lpg","adblue"],"opening_hours":"24/7","p":{"n95":6.68,"n98":7.12,"on":6.68,"lpg":2.89,"src":"estimate","at":"2026-05-06T09:49:15+00:00"}},{"id":"pl_265629974","name":"Orlen","brand":"Orlen","lat":52.4265114,"lng":16.9181465,"address":"","city":"","region":"","services":["lpg"],"opening_hours":"24/7","p":{"n95":6.43,"n98":6.87,"on":6.43,"lpg":2.89,"src":"estimate","at":"2026-05-06T09:49:15+00:00"}},{"id":"pl_266416655","name":"HIL-GAZ","brand":"HIL-GAZ","lat":53.2331548,"lng":14.4882178,"address":"Czechosłowacka 2","city":"","region":"","services":[],"opening_hours":"05:00-23:00","p":{"n95":6.38,"n98":null,"on":6.38,"lpg":null,"src":"estimate","at":"2026-05-06T09:49:15+00:00"}},{"id":"pl_266456843","name":"Lotos","brand":"Lotos","lat":51.5166346,"lng":17.2783908,"address":"","city":"","region":"","services":["lpg"],"opening_hours":"","p":{"n95":6.43,"n98":null,"on":6.43,"lpg":2.89,"src":"estimate","at":"2026-05-06T09:49:15+00:00"}},{"id":"pl_266561072","name":"Orlen","brand":"Orlen","lat":51.2068968,"lng":16.1816233,"address":"","city":"","region":"","services":["lpg"],"opening_hours":"24/7","p":{"n95":6.43,"n98":6.87,"on":6.43,"lpg":2.89,"src":"estimate","at":"2026-05-06T09:49:15+00:00"}},{"id":"pl_266858339","name":"BP Orbita","brand":"BP","lat":51.209423,"lng":16.1860825,"address":"","city":"","region":"","services":["lpg"],"opening_hours":"24/7","p":{"n95":6.68,"n98":7.12,"on":6.68,"lpg":2.89,"src":"estimate","at":"2026-05-06T09:49:15+00:00"}},{"id":"pl_267240626","name":"BP Lech","brand":"BP","lat":53.3850736,"lng":14.6518149,"address":"","city":"","region":"","services":["lpg"],"opening_hours":"","p":{"n95":6.68,"n98":7.12,"on":6.68,"lpg":2.89,"src":"estimate","at":"2026-05-06T09:49:15+00:00"}},{"id":"pl_267241999","name":"Orlen","brand":"Orlen","lat":53.4249853,"lng":14.5456118,"address":"","city":"","region":"","services":[],"opening_hours":"","p":{"n95":6.43,"n98":6.87,"on":6.43,"lpg":2.89,"src":"estimate","at":"2026-05-06T09:49:15+00:00"}},{"id":"pl_267242075","name":"Orlen","brand":"Orlen","lat":53.4368776,"lng":14.5323492,"address":"","city":"","region":"","services":[],"opening_hours":"","p":{"n95":6.43,"n98":6.87,"on":6.43,"lpg":2.89,"src":"estimate","at":"2026-05-06T09:49:15+00:00"}},{"id":"pl_267248379","name":"Shell","brand":"Shell","lat":53.4453989,"lng":14.5225202,"address":"","city":"","region":"","services":["lpg"],"opening_hours":"24/7","p":{"n95":6.73,"n98":7.17,"on":6.73,"lpg":null,"src":"estimate","at":"2026-05-06T09:49:15+00:00"}},{"id":"pl_267249076","name":"Orlen","brand":"Orlen","lat":53.4541798,"lng":14.537315,"address":"","city":"","region":"","services":["lpg"],"opening_hours":"24/7","p":{"n95":6.43,"n98":6.87,"on":6.43,"lpg":2.89,"src":"estimate","at":"2026-05-06T09:49:15+00:00"}},{"id":"pl_267458634","name":"Orlen","brand":"Orlen","lat":52.0301603,"lng":23.1184148,"address":"","city":"","region":"","services":[],"opening_hours":"24/7","p":{"n95":6.43,"n98":6.87,"on":6.43,"lpg":2.89,"src":"estimate","at":"2026-05-06T09:49:15+00:00"}},{"id":"pl_269327980","name":"Orlen","brand":"Orlen","lat":53.3718582,"lng":14.6059124,"address":"Granitowa","city":"Szczecin","region":"","services":["lpg"],"opening_hours":"24/7","p":{"n95":6.43,"n98":6.87,"on":6.43,"lpg":2.89,"src":"estimate","at":"2026-05-06T09:49:15+00:00"}},{"id":"pl_269654354","name":"Shell","brand":"Shell","lat":50.0894747,"lng":19.9024898,"address":"","city":"","region":"","services":[],"opening_hours":"24/7","p":{"n95":6.73,"n98":7.17,"on":6.73,"lpg":null,"src":"estimate","at":"2026-05-06T09:49:15+00:00"}},{"id":"pl_270196785","name":"Circle K","brand":"Circle K","lat":52.1521077,"lng":21.0169127,"address":"Puławska 274","city":"Warszawa","region":"","services":["lpg"],"opening_hours":"24/7","p":{"n95":6.63,"n98":7.07,"on":6.63,"lpg":2.89,"src":"estimate","at":"2026-05-06T09:49:15+00:00"}},{"id":"pl_271230252","name":"Orlen","brand":"Orlen","lat":52.0512203,"lng":23.1210009,"address":"","city":"","region":"","services":[],"opening_hours":"","p":{"n95":6.43,"n98":6.87,"on":6.43,"lpg":2.89,"src":"estimate","at":"2026-05-06T09:49:15+00:00"}},{"id":"pl_274282013","name":"Orlen","brand":"Orlen","lat":52.9788007,"lng":22.2305084,"address":"","city":"","region":"","services":["lpg"],"opening_hours":"24/7","p":{"n95":6.43,"n98":6.87,"on":6.43,"lpg":2.89,"src":"estimate","at":"2026-05-06T09:49:15+00:00"}},{"id":"pl_275068760","name":"Stacja paliw","brand":"Stacja paliw","lat":52.2804078,"lng":21.1134755,"address":"","city":"","region":"","services":["lpg"],"opening_hours":"","p":{"n95":6.38,"n98":null,"on":6.38,"lpg":null,"src":"estimate","at":"2026-05-06T09:49:15+00:00"}},{"id":"pl_275565845","name":"Orlen","brand":"Orlen","lat":51.7860807,"lng":14.9306535,"address":"","city":"","region":"","services":["lpg"],"opening_hours":"24/7","p":{"n95":6.43,"n98":6.87,"on":6.43,"lpg":2.89,"src":"estimate","at":"2026-05-06T09:49:15+00:00"}},{"id":"pl_275620939","name":"Dan-Pol","brand":"Dan-Pol","lat":51.7853456,"lng":14.970084,"address":"","city":"","region":"","services":[],"opening_hours":"","p":{"n95":6.38,"n98":null,"on":6.38,"lpg":null,"src":"estimate","at":"2026-05-06T09:49:15+00:00"}},{"id":"pl_275621688","name":"Pieprzyk","brand":"Pieprzyk","lat":51.7882583,"lng":14.9514577,"address":"","city":"","region":"","services":[],"opening_hours":"","p":{"n95":6.38,"n98":null,"on":6.38,"lpg":null,"src":"estimate","at":"2026-05-06T09:49:15+00:00"}},{"id":"pl_276522640","name":"Adjor","brand":"Adjor","lat":52.0893523,"lng":15.6508953,"address":"","city":"","region":"","services":[],"opening_hours":"","p":{"n95":6.38,"n98":null,"on":6.38,"lpg":null,"src":"estimate","at":"2026-05-06T09:49:15+00:00"}},{"id":"pl_277632185","name":"StarOil","brand":"StarOil","lat":52.0999049,"lng":19.9191937,"address":"Tuszewska 41","city":"","region":"","services":[],"opening_hours":"","p":{"n95":6.38,"n98":null,"on":6.38,"lpg":null,"src":"estimate","at":"2026-05-06T09:49:15+00:00"}},{"id":"pl_277718808","name":"BP Krakowiak","brand":"BP","lat":50.0870389,"lng":19.9850877,"address":"","city":"","region":"","services":["lpg"],"opening_hours":"24/7","p":{"n95":6.68,"n98":7.12,"on":6.68,"lpg":2.89,"src":"estimate","at":"2026-05-06T09:49:15+00:00"}},{"id":"pl_278965782","name":"Orlen","brand":"Orlen","lat":52.1024202,"lng":19.97345,"address":"Bolimowska 75","city":"Łowicz","region":"","services":[],"opening_hours":"24/7","p":{"n95":6.43,"n98":6.87,"on":6.43,"lpg":2.89,"src":"estimate","at":"2026-05-06T09:49:15+00:00"}},{"id":"pl_278987557","name":"Circle K","brand":"Circle K","lat":52.2483087,"lng":20.9123712,"address":"Powstańców Śląskich 90","city":"Warszawa","region":"","services":["lpg"],"opening_hours":"24/7","p":{"n95":6.63,"n98":7.07,"on":6.63,"lpg":2.89,"src":"estimate","at":"2026-05-06T09:49:15+00:00"}},{"id":"pl_279142139","name":"AutoGAZ","brand":"AutoGAZ","lat":52.2316634,"lng":21.0955524,"address":"","city":"","region":"","services":[],"opening_hours":"","p":{"n95":6.38,"n98":null,"on":6.38,"lpg":null,"src":"estimate","at":"2026-05-06T09:49:15+00:00"}},{"id":"pl_279857505","name":"Atip","brand":"Atip","lat":52.2515517,"lng":21.2931159,"address":"Okuniewska 2a","city":"Sulejówek","region":"","services":[],"opening_hours":"","p":{"n95":6.38,"n98":null,"on":6.38,"lpg":null,"src":"estimate","at":"2026-05-06T09:49:15+00:00"}},{"id":"pl_282393656","name":"Orlen","brand":"Orlen","lat":52.1411496,"lng":21.1904746,"address":"","city":"","region":"","services":[],"opening_hours":"24/7","p":{"n95":6.43,"n98":6.87,"on":6.43,"lpg":2.89,"src":"estimate","at":"2026-05-06T09:49:15+00:00"}},{"id":"pl_282740611","name":"Orlen","brand":"Orlen","lat":51.9718198,"lng":20.1483711,"address":"Widok","city":"Skierniewice","region":"","services":["lpg"],"opening_hours":"24/7","p":{"n95":6.43,"n98":6.87,"on":6.43,"lpg":2.89,"src":"estimate","at":"2026-05-06T09:49:15+00:00"}},{"id":"pl_282740630","name":"Shell","brand":"Shell","lat":51.9717844,"lng":20.1472831,"address":"","city":"","region":"","services":["lpg"],"opening_hours":"24/7","p":{"n95":6.73,"n98":7.17,"on":6.73,"lpg":null,"src":"estimate","at":"2026-05-06T09:49:15+00:00"}},{"id":"pl_282926298","name":"Autogaz","brand":"Autogaz","lat":52.7979044,"lng":19.8609512,"address":"","city":"","region":"","services":["lpg"],"opening_hours":"","p":{"n95":6.38,"n98":null,"on":6.38,"lpg":null,"src":"estimate","at":"2026-05-06T09:49:15+00:00"}},{"id":"pl_283024662","name":"LPG","brand":"LPG","lat":52.0999056,"lng":19.9191045,"address":"","city":"","region":"","services":[],"opening_hours":"","p":{"n95":6.38,"n98":null,"on":6.38,"lpg":null,"src":"estimate","at":"2026-05-06T09:49:15+00:00"}},{"id":"pl_283255265","name":"Moya","brand":"Moya","lat":53.132611,"lng":19.8374654,"address":"","city":"","region":"","services":[],"opening_hours":"","p":{"n95":6.23,"n98":null,"on":6.23,"lpg":2.89,"src":"estimate","at":"2026-05-06T09:49:15+00:00"}},{"id":"pl_283352307","name":"Gaspol","brand":"Gaspol","lat":53.2550425,"lng":19.8936576,"address":"","city":"","region":"","services":[],"opening_hours":"","p":{"n95":6.38,"n98":null,"on":6.38,"lpg":null,"src":"estimate","at":"2026-05-06T09:49:15+00:00"}},{"id":"pl_283847457","name":"Gazobenz","brand":"Gazobenz","lat":53.0686697,"lng":19.8986731,"address":"","city":"","region":"","services":[],"opening_hours":"","p":{"n95":6.38,"n98":null,"on":6.38,"lpg":null,"src":"estimate","at":"2026-05-06T09:49:15+00:00"}},{"id":"pl_283934700","name":"Stacja paliw","brand":"Stacja paliw","lat":52.8799228,"lng":19.8710407,"address":"","city":"","region":"","services":[],"opening_hours":"","p":{"n95":6.38,"n98":null,"on":6.38,"lpg":null,"src":"estimate","at":"2026-05-06T09:49:15+00:00"}},{"id":"pl_283935019","name":"Shell","brand":"Shell","lat":52.7817286,"lng":19.8997258,"address":"","city":"","region":"","services":["lpg"],"opening_hours":"","p":{"n95":6.73,"n98":7.17,"on":6.73,"lpg":null,"src":"estimate","at":"2026-05-06T09:49:15+00:00"}},{"id":"pl_285943909","name":"Stacja paliw","brand":"Stacja paliw","lat":52.0949841,"lng":19.9324097,"address":"","city":"","region":"","services":[],"opening_hours":"","p":{"n95":6.38,"n98":null,"on":6.38,"lpg":null,"src":"estimate","at":"2026-05-06T09:49:15+00:00"}},{"id":"pl_285946354","name":"Orlen","brand":"Orlen","lat":52.1041487,"lng":19.9530102,"address":"","city":"","region":"","services":[],"opening_hours":"","p":{"n95":6.43,"n98":6.87,"on":6.43,"lpg":2.89,"src":"estimate","at":"2026-05-06T09:49:15+00:00"}},{"id":"pl_288473772","name":"Orlen","brand":"Orlen","lat":53.3973211,"lng":14.6752953,"address":"","city":"","region":"","services":[],"opening_hours":"","p":{"n95":6.43,"n98":6.87,"on":6.43,"lpg":2.89,"src":"estimate","at":"2026-05-06T09:49:15+00:00"}},{"id":"pl_288811960","name":"BP","brand":"BP","lat":51.2733801,"lng":15.7865319,"address":"Szwedzka 1B","city":"Okmiany","region":"","services":["lpg","adblue"],"opening_hours":"24/7","p":{"n95":6.68,"n98":7.12,"on":6.68,"lpg":2.89,"src":"estimate","at":"2026-05-06T09:49:15+00:00"}},{"id":"pl_292144518","name":"Orlen","brand":"Orlen","lat":52.2258666,"lng":21.1488765,"address":"","city":"","region":"","services":["lpg"],"opening_hours":"24/7","p":{"n95":6.43,"n98":6.87,"on":6.43,"lpg":2.89,"src":"estimate","at":"2026-05-06T09:49:15+00:00"}},{"id":"pl_292350920","name":"Orlen","brand":"Orlen","lat":51.3706076,"lng":22.6335031,"address":"Przemysłowa","city":"Niemce","region":"","services":[],"opening_hours":"24/7","p":{"n95":6.43,"n98":6.87,"on":6.43,"lpg":2.89,"src":"estimate","at":"2026-05-06T09:49:15+00:00"}},{"id":"pl_293586364","name":"Moya","brand":"Moya","lat":53.4076949,"lng":14.517515,"address":"","city":"","region":"","services":[],"opening_hours":"24/7","p":{"n95":6.23,"n98":null,"on":6.23,"lpg":2.89,"src":"estimate","at":"2026-05-06T09:49:15+00:00"}},{"id":"pl_294680313","name":"Orlen","brand":"Orlen","lat":50.6520761,"lng":17.9093307,"address":"","city":"","region":"","services":[],"opening_hours":"24/7","p":{"n95":6.43,"n98":6.87,"on":6.43,"lpg":2.89,"src":"estimate","at":"2026-05-06T09:49:15+00:00"}},{"id":"pl_295340204","name":"BP Szpetal","brand":"BP","lat":52.6831935,"lng":19.0998657,"address":"","city":"","region":"","services":["lpg"],"opening_hours":"24/7","p":{"n95":6.68,"n98":7.12,"on":6.68,"lpg":2.89,"src":"estimate","at":"2026-05-06T09:49:15+00:00"}},{"id":"pl_295552954","name":"MOL","brand":"MOL","lat":52.736467,"lng":23.5841756,"address":"","city":"","region":"","services":[],"opening_hours":"","p":{"n95":6.38,"n98":null,"on":6.38,"lpg":null,"src":"estimate","at":"2026-05-06T09:49:15+00:00"}},{"id":"pl_295887875","name":"MOL","brand":"MOL","lat":53.4539312,"lng":14.5605949,"address":"","city":"","region":"","services":[],"opening_hours":"24/7","p":{"n95":6.38,"n98":null,"on":6.38,"lpg":null,"src":"estimate","at":"2026-05-06T09:49:15+00:00"}},{"id":"pl_296384840","name":"Orlen","brand":"Orlen","lat":50.1377464,"lng":20.3865229,"address":"","city":"","region":"","services":[],"opening_hours":"","p":{"n95":6.43,"n98":6.87,"on":6.43,"lpg":2.89,"src":"estimate","at":"2026-05-06T09:49:15+00:00"}},{"id":"pl_297142804","name":"MZK","brand":"MZK","lat":51.9811643,"lng":20.1643159,"address":"","city":"","region":"","services":[],"opening_hours":"","p":{"n95":6.38,"n98":null,"on":6.38,"lpg":null,"src":"estimate","at":"2026-05-06T09:49:15+00:00"}},{"id":"pl_297143178","name":"Raws","brand":"Raws","lat":51.9850684,"lng":20.2125746,"address":"","city":"","region":"","services":[],"opening_hours":"","p":{"n95":6.38,"n98":null,"on":6.38,"lpg":null,"src":"estimate","at":"2026-05-06T09:49:15+00:00"}},{"id":"pl_298888894","name":"Orlen","brand":"Orlen","lat":52.4299948,"lng":16.8479389,"address":"","city":"","region":"","services":["lpg","adblue"],"opening_hours":"24/7","p":{"n95":6.43,"n98":6.87,"on":6.43,"lpg":2.89,"src":"estimate","at":"2026-05-06T09:49:15+00:00"}},{"id":"pl_299663493","name":"Bobryk","brand":"Bobryk","lat":53.3714734,"lng":14.4722083,"address":"","city":"","region":"","services":[],"opening_hours":"","p":{"n95":6.38,"n98":null,"on":6.38,"lpg":null,"src":"estimate","at":"2026-05-06T09:49:15+00:00"}},{"id":"pl_301526370","name":"123","brand":"123","lat":50.7888778,"lng":19.1084601,"address":"","city":"","region":"","services":[],"opening_hours":"","p":{"n95":6.38,"n98":null,"on":6.38,"lpg":null,"src":"estimate","at":"2026-05-06T09:49:15+00:00"}},{"id":"pl_301639000","name":"Amic Energy","brand":"Amic","lat":51.0834593,"lng":17.0478888,"address":"","city":"","region":"","services":[],"opening_hours":"24/7","p":{"n95":6.28,"n98":null,"on":6.28,"lpg":2.89,"src":"estimate","at":"2026-05-06T09:49:15+00:00"}},{"id":"pl_302235666","name":"BP","brand":"BP","lat":51.1270586,"lng":16.9809072,"address":"Legnicka 67","city":"Wrocław","region":"","services":["lpg"],"opening_hours":"24/7","p":{"n95":6.68,"n98":7.12,"on":6.68,"lpg":2.89,"src":"estimate","at":"2026-05-06T09:49:15+00:00"}},{"id":"pl_302387512","name":"Wasbruk","brand":"Wasbruk","lat":52.2282543,"lng":21.1393835,"address":"Białoborska 4","city":"","region":"","services":["lpg"],"opening_hours":"24/7","p":{"n95":6.38,"n98":null,"on":6.38,"lpg":null,"src":"estimate","at":"2026-05-06T09:49:15+00:00"}},{"id":"pl_303024212","name":"Lust","brand":"Lust","lat":51.294766,"lng":21.24671,"address":"","city":"","region":"","services":["lpg"],"opening_hours":"","p":{"n95":6.38,"n98":null,"on":6.38,"lpg":null,"src":"estimate","at":"2026-05-06T09:49:15+00:00"}},{"id":"pl_304634347","name":"BP","brand":"BP","lat":51.0821413,"lng":17.0507768,"address":"Bardzka 26","city":"Wrocław","region":"","services":[],"opening_hours":"24/7","p":{"n95":6.68,"n98":7.12,"on":6.68,"lpg":2.89,"src":"estimate","at":"2026-05-06T09:49:15+00:00"}},{"id":"pl_304858744","name":"Agropal","brand":"Agropal","lat":51.1941798,"lng":21.9979405,"address":"","city":"","region":"","services":["lpg"],"opening_hours":"","p":{"n95":6.38,"n98":null,"on":6.38,"lpg":null,"src":"estimate","at":"2026-05-06T09:49:15+00:00"}},{"id":"pl_304858784","name":"Darex","brand":"Darex","lat":51.0220762,"lng":22.1134647,"address":"","city":"","region":"","services":[],"opening_hours":"","p":{"n95":6.38,"n98":null,"on":6.38,"lpg":null,"src":"estimate","at":"2026-05-06T09:49:15+00:00"}},{"id":"pl_306010249","name":"Shell","brand":"Shell","lat":53.4596788,"lng":14.5435927,"address":"","city":"","region":"","services":[],"opening_hours":"24/7","p":{"n95":6.73,"n98":7.17,"on":6.73,"lpg":null,"src":"estimate","at":"2026-05-06T09:49:15+00:00"}},{"id":"pl_307524468","name":"AUTO GAZ","brand":"AUTO GAZ","lat":52.2423853,"lng":21.0997637,"address":"","city":"","region":"","services":[],"opening_hours":"","p":{"n95":6.38,"n98":null,"on":6.38,"lpg":null,"src":"estimate","at":"2026-05-06T09:49:15+00:00"}},{"id":"pl_307947031","name":"Circle K","brand":"Circle K","lat":52.378234,"lng":16.8860772,"address":"","city":"","region":"","services":["lpg"],"opening_hours":"24/7","p":{"n95":6.63,"n98":7.07,"on":6.63,"lpg":2.89,"src":"estimate","at":"2026-05-06T09:49:15+00:00"}},{"id":"pl_308996364","name":"Auchan","brand":"Auchan","lat":52.4384682,"lng":16.7627256,"address":"","city":"","region":"","services":["lpg"],"opening_hours":"Mo-Sa 08:30-22:00; Su 09:00-21:00","p":{"n95":6.13,"n98":null,"on":6.13,"lpg":null,"src":"estimate","at":"2026-05-06T09:49:15+00:00"}},{"id":"pl_310284393","name":"Shell","brand":"Shell","lat":52.9985026,"lng":18.604914,"address":"","city":"","region":"","services":[],"opening_hours":"","p":{"n95":6.73,"n98":7.17,"on":6.73,"lpg":null,"src":"estimate","at":"2026-05-06T09:49:15+00:00"}},{"id":"pl_310456995","name":"Centrum","brand":"Centrum","lat":51.0461665,"lng":16.9648111,"address":"","city":"","region":"","services":["lpg"],"opening_hours":"","p":{"n95":6.38,"n98":null,"on":6.38,"lpg":null,"src":"estimate","at":"2026-05-06T09:49:15+00:00"}},{"id":"pl_311573236","name":"Stacja paliw","brand":"Stacja paliw","lat":53.4036483,"lng":23.505157,"address":"","city":"","region":"","services":[],"opening_hours":"","p":{"n95":6.38,"n98":null,"on":6.38,"lpg":null,"src":"estimate","at":"2026-05-06T09:49:15+00:00"}},{"id":"pl_311778212","name":"Orlen","brand":"Orlen","lat":53.9272558,"lng":18.6902768,"address":"Plac Wolności 7","city":"Pelplin","region":"","services":[],"opening_hours":"","p":{"n95":6.43,"n98":6.87,"on":6.43,"lpg":2.89,"src":"estimate","at":"2026-05-06T09:49:15+00:00"}},{"id":"pl_311970476","name":"Stacjia Paliw Auto-Darex","brand":"Stacjia Paliw Auto-Darex","lat":53.9396366,"lng":18.5660152,"address":"","city":"","region":"","services":[],"opening_hours":"","p":{"n95":6.38,"n98":null,"on":6.38,"lpg":null,"src":"estimate","at":"2026-05-06T09:49:15+00:00"}},{"id":"pl_313418888","name":"Orlen","brand":"PKN Orlen","lat":53.4652907,"lng":14.5791096,"address":"","city":"","region":"","services":["lpg"],"opening_hours":"","p":{"n95":6.43,"n98":6.87,"on":6.43,"lpg":2.89,"src":"estimate","at":"2026-05-06T09:49:15+00:00"}},{"id":"pl_313425082","name":"BP Meteor","brand":"BP","lat":50.4309569,"lng":18.8657085,"address":"","city":"","region":"","services":["lpg"],"opening_hours":"","p":{"n95":6.68,"n98":7.12,"on":6.68,"lpg":2.89,"src":"estimate","at":"2026-05-06T09:49:15+00:00"}},{"id":"pl_313491871","name":"BP","brand":"BP","lat":52.3781113,"lng":16.8743758,"address":"Głogowska 232/234","city":"Poznań","region":"","services":["lpg","adblue"],"opening_hours":"24/7","p":{"n95":6.68,"n98":7.12,"on":6.68,"lpg":2.89,"src":"estimate","at":"2026-05-06T09:49:15+00:00"}},{"id":"pl_314451504","name":"PEKAES","brand":"PEKAES","lat":53.353027,"lng":14.7452806,"address":"","city":"","region":"","services":[],"opening_hours":"","p":{"n95":6.38,"n98":null,"on":6.38,"lpg":null,"src":"estimate","at":"2026-05-06T09:49:15+00:00"}},{"id":"pl_316997698","name":"BP","brand":"BP","lat":52.4311464,"lng":16.9465912,"address":"Serbska 24","city":"Poznań","region":"","services":["lpg"],"opening_hours":"24/7","p":{"n95":6.68,"n98":7.12,"on":6.68,"lpg":2.89,"src":"estimate","at":"2026-05-06T09:49:15+00:00"}},{"id":"pl_319205268","name":"Shell","brand":"Shell","lat":54.5443765,"lng":18.4651424,"address":"Chylońska 110A","city":"Gdynia","region":"","services":[],"opening_hours":"","p":{"n95":6.73,"n98":7.17,"on":6.73,"lpg":null,"src":"estimate","at":"2026-05-06T09:49:15+00:00"}},{"id":"pl_321726188","name":"Grosar","brand":"Grosar","lat":49.99272,"lng":21.2632861,"address":"","city":"","region":"","services":[],"opening_hours":"","p":{"n95":6.38,"n98":null,"on":6.38,"lpg":null,"src":"estimate","at":"2026-05-06T09:49:15+00:00"}},{"id":"pl_322526361","name":"Orlen","brand":"Orlen","lat":53.1023947,"lng":23.1391236,"address":"Kawaleryjska 27","city":"Białystok","region":"","services":["lpg","car_wash"],"opening_hours":"24/7","p":{"n95":6.43,"n98":6.87,"on":6.43,"lpg":2.89,"src":"estimate","at":"2026-05-06T09:49:15+00:00"}},{"id":"pl_322691916","name":"AMIC Energy","brand":"AMIC Energy","lat":53.2352173,"lng":14.7873017,"address":"","city":"","region":"","services":["lpg"],"opening_hours":"24/7","p":{"n95":6.28,"n98":null,"on":6.28,"lpg":2.89,"src":"estimate","at":"2026-05-06T09:49:15+00:00"}},{"id":"pl_322691922","name":"Orlen","brand":"Orlen","lat":53.1523086,"lng":14.8823555,"address":"","city":"","region":"","services":["lpg"],"opening_hours":"24/7","p":{"n95":6.43,"n98":6.87,"on":6.43,"lpg":2.89,"src":"estimate","at":"2026-05-06T09:49:15+00:00"}},{"id":"pl_322797164","name":"BP Jantar","brand":"BP","lat":52.1935416,"lng":20.9239302,"address":"","city":"","region":"","services":["lpg"],"opening_hours":"PH,Mo-Su 00:00-24:00","p":{"n95":6.68,"n98":7.12,"on":6.68,"lpg":2.89,"src":"estimate","at":"2026-05-06T09:49:15+00:00"}},{"id":"pl_322920602","name":"Orlen","brand":"Orlen","lat":50.2545181,"lng":19.0471037,"address":"","city":"","region":"","services":["lpg"],"opening_hours":"24/7","p":{"n95":6.43,"n98":6.87,"on":6.43,"lpg":2.89,"src":"estimate","at":"2026-05-06T09:49:15+00:00"}},{"id":"pl_325090736","name":"Orlen","brand":"Orlen","lat":50.17846,"lng":18.8891557,"address":"","city":"","region":"","services":[],"opening_hours":"","p":{"n95":6.43,"n98":6.87,"on":6.43,"lpg":2.89,"src":"estimate","at":"2026-05-06T09:49:15+00:00"}},{"id":"pl_325247451","name":"BP Bielik","brand":"BP","lat":52.3767224,"lng":16.9577525,"address":"","city":"","region":"","services":["lpg","adblue"],"opening_hours":"24/7","p":{"n95":6.68,"n98":7.12,"on":6.68,"lpg":2.89,"src":"estimate","at":"2026-05-06T09:49:15+00:00"}},{"id":"pl_327843809","name":"Ki","brand":"Ki","lat":53.5330631,"lng":15.8046042,"address":"","city":"","region":"","services":[],"opening_hours":"","p":{"n95":6.38,"n98":null,"on":6.38,"lpg":null,"src":"estimate","at":"2026-05-06T09:49:15+00:00"}},{"id":"pl_327854771","name":"Orlen","brand":"Orlen","lat":53.5268125,"lng":15.7957148,"address":"","city":"","region":"","services":[],"opening_hours":"","p":{"n95":6.43,"n98":6.87,"on":6.43,"lpg":2.89,"src":"estimate","at":"2026-05-06T09:49:15+00:00"}},{"id":"pl_327858238","name":"Stacja paliw","brand":"Stacja paliw","lat":53.5242409,"lng":15.7914576,"address":"","city":"","region":"","services":[],"opening_hours":"","p":{"n95":6.38,"n98":null,"on":6.38,"lpg":null,"src":"estimate","at":"2026-05-06T09:49:15+00:00"}},{"id":"pl_328132272","name":"Agromarket","brand":"Agromarket","lat":53.5136862,"lng":15.6407956,"address":"","city":"","region":"","services":[],"opening_hours":"","p":{"n95":6.38,"n98":null,"on":6.38,"lpg":null,"src":"estimate","at":"2026-05-06T09:49:15+00:00"}},{"id":"pl_330097029","name":"Shell","brand":"Shell","lat":50.4795539,"lng":17.9722281,"address":"","city":"","region":"","services":[],"opening_hours":"","p":{"n95":6.73,"n98":7.17,"on":6.73,"lpg":null,"src":"estimate","at":"2026-05-06T09:49:15+00:00"}},{"id":"pl_332176709","name":"Moya","brand":"Moya","lat":50.2992857,"lng":18.7968989,"address":"","city":"","region":"","services":[],"opening_hours":"24/7","p":{"n95":6.23,"n98":null,"on":6.23,"lpg":2.89,"src":"estimate","at":"2026-05-06T09:49:15+00:00"}},{"id":"pl_332578984","name":"Orlen","brand":"Orlen","lat":52.4006424,"lng":16.9215862,"address":"Topolowa 11","city":"Poznań","region":"","services":[],"opening_hours":"24/7","p":{"n95":6.43,"n98":6.87,"on":6.43,"lpg":2.89,"src":"estimate","at":"2026-05-06T09:49:15+00:00"}},{"id":"pl_333200463","name":"Shell","brand":"Shell","lat":53.3425901,"lng":14.9902798,"address":"","city":"","region":"","services":[],"opening_hours":"","p":{"n95":6.73,"n98":7.17,"on":6.73,"lpg":null,"src":"estimate","at":"2026-05-06T09:49:15+00:00"}},{"id":"pl_333716219","name":"Orlen","brand":"Orlen","lat":52.2788833,"lng":16.6877701,"address":"","city":"","region":"","services":["lpg","adblue"],"opening_hours":"24/7","p":{"n95":6.43,"n98":6.87,"on":6.43,"lpg":2.89,"src":"estimate","at":"2026-05-06T09:49:15+00:00"}},{"id":"pl_333742889","name":"Circle K","brand":"Circle K","lat":51.0623516,"lng":17.0008838,"address":"","city":"","region":"","services":[],"opening_hours":"PH,Mo-Su 00:00-24:00","p":{"n95":6.63,"n98":7.07,"on":6.63,"lpg":2.89,"src":"estimate","at":"2026-05-06T09:49:15+00:00"}},{"id":"pl_333743285","name":"Orlen","brand":"Orlen","lat":51.0834165,"lng":17.0251006,"address":"Ślężna 88A","city":"Wrocław","region":"","services":["lpg"],"opening_hours":"24/7","p":{"n95":6.43,"n98":6.87,"on":6.43,"lpg":2.89,"src":"estimate","at":"2026-05-06T09:49:15+00:00"}},{"id":"pl_338911738","name":"BP","brand":"BP","lat":52.396609,"lng":16.8684684,"address":"","city":"","region":"","services":["lpg"],"opening_hours":"24/7","p":{"n95":6.68,"n98":7.12,"on":6.68,"lpg":2.89,"src":"estimate","at":"2026-05-06T09:49:15+00:00"}},{"id":"pl_339223210","name":"Orlen","brand":"Orlen","lat":52.0921314,"lng":21.1195564,"address":"Warszawska 4","city":"Konstancin-Jeziorna","region":"","services":[],"opening_hours":"","p":{"n95":6.43,"n98":6.87,"on":6.43,"lpg":2.89,"src":"estimate","at":"2026-05-06T09:49:15+00:00"}},{"id":"pl_341776498","name":"Stacja paliw","brand":"Stacja paliw","lat":50.3092794,"lng":18.7554522,"address":"","city":"","region":"","services":[],"opening_hours":"","p":{"n95":6.38,"n98":null,"on":6.38,"lpg":null,"src":"estimate","at":"2026-05-06T09:49:15+00:00"}},{"id":"pl_342267642","name":"Circle K Express","brand":"Circle K","lat":50.094842,"lng":19.951266,"address":"Siewna 28","city":"Kraków","region":"","services":["lpg"],"opening_hours":"Mo-Sa 06:30-22:00; Su 08:00-21:00","p":{"n95":6.63,"n98":7.07,"on":6.63,"lpg":2.89,"src":"estimate","at":"2026-05-06T09:49:15+00:00"}},{"id":"pl_344106486","name":"MOL","brand":"MOL","lat":50.827826,"lng":16.3052915,"address":"","city":"","region":"","services":["lpg"],"opening_hours":"Mo-Su,PH 00:00-24:00","p":{"n95":6.38,"n98":null,"on":6.38,"lpg":null,"src":"estimate","at":"2026-05-06T09:49:15+00:00"}},{"id":"pl_344985073","name":"Circle K","brand":"Circle K","lat":50.193889,"lng":18.9835109,"address":"Szarych Szeregów 3","city":"Katowice","region":"","services":[],"opening_hours":"","p":{"n95":6.63,"n98":7.07,"on":6.63,"lpg":2.89,"src":"estimate","at":"2026-05-06T09:49:15+00:00"}},{"id":"pl_349189427","name":"LPG","brand":"LPG","lat":52.232706,"lng":21.5414547,"address":"Stanisławowska 26","city":"Brzóze","region":"","services":["lpg"],"opening_hours":"04:00-24:00","p":{"n95":6.38,"n98":null,"on":6.38,"lpg":null,"src":"estimate","at":"2026-05-06T09:49:15+00:00"}},{"id":"pl_349189443","name":"BP Warmiaki","brand":"BP","lat":52.4637002,"lng":21.6540523,"address":"Warmiaki","city":"Warmiaki","region":"","services":["lpg"],"opening_hours":"","p":{"n95":6.68,"n98":7.12,"on":6.68,"lpg":2.89,"src":"estimate","at":"2026-05-06T09:49:15+00:00"}},{"id":"pl_353225918","name":"Circle K","brand":"Circle K","lat":52.3863772,"lng":16.9611186,"address":"","city":"","region":"","services":["lpg"],"opening_hours":"24/7","p":{"n95":6.63,"n98":7.07,"on":6.63,"lpg":2.89,"src":"estimate","at":"2026-05-06T09:49:15+00:00"}},{"id":"pl_353499221","name":"Orlen","brand":"Orlen","lat":52.4101007,"lng":17.0079679,"address":"","city":"","region":"","services":["lpg"],"opening_hours":"24/7","p":{"n95":6.43,"n98":6.87,"on":6.43,"lpg":2.89,"src":"estimate","at":"2026-05-06T09:49:15+00:00"}},{"id":"pl_353740430","name":"Orlen nr 665","brand":"Orlen","lat":52.2529287,"lng":16.8541394,"address":"Piotra Mocka 3","city":"Mosina","region":"","services":["lpg"],"opening_hours":"24/7","p":{"n95":6.43,"n98":6.87,"on":6.43,"lpg":2.89,"src":"estimate","at":"2026-05-06T09:49:15+00:00"}},{"id":"pl_357528180","name":"Baltica","brand":"Baltica","lat":52.3801056,"lng":20.6307093,"address":"","city":"","region":"","services":[],"opening_hours":"24/7","p":{"n95":6.38,"n98":null,"on":6.38,"lpg":null,"src":"estimate","at":"2026-05-06T09:49:15+00:00"}},{"id":"pl_358299878","name":"MOL","brand":"MOL","lat":52.1444584,"lng":20.8518636,"address":"","city":"","region":"","services":[],"opening_hours":"","p":{"n95":6.38,"n98":null,"on":6.38,"lpg":null,"src":"estimate","at":"2026-05-06T09:49:15+00:00"}},{"id":"pl_359467227","name":"Orlen","brand":"Orlen","lat":52.0697629,"lng":22.2943293,"address":"Siedlecka 8a","city":"Wiśniew","region":"","services":["lpg"],"opening_hours":"24/7","p":{"n95":6.43,"n98":6.87,"on":6.43,"lpg":2.89,"src":"estimate","at":"2026-05-06T09:49:15+00:00"}},{"id":"pl_359467233","name":"Lotos","brand":"Independent","lat":52.0335402,"lng":23.2698311,"address":"Woskrzenice Duże","city":"Woskrzenice Duże","region":"","services":["lpg"],"opening_hours":"24/7","p":{"n95":6.38,"n98":null,"on":6.38,"lpg":null,"src":"estimate","at":"2026-05-06T09:49:15+00:00"}},{"id":"pl_359467267","name":"Orlen (LPG)","brand":"Orlen (LPG)","lat":52.05556,"lng":22.51571,"address":"","city":"","region":"","services":[],"opening_hours":"","p":{"n95":6.43,"n98":6.87,"on":6.43,"lpg":2.89,"src":"estimate","at":"2026-05-06T09:49:15+00:00"}},{"id":"pl_359821978","name":"Avia","brand":"Avia","lat":52.1423676,"lng":21.5031906,"address":"50","city":"Maliszew","region":"","services":[],"opening_hours":"24/7","p":{"n95":6.38,"n98":null,"on":6.38,"lpg":null,"src":"estimate","at":"2026-05-06T09:49:15+00:00"}},{"id":"pl_359822024","name":"Circle K Express","brand":"Circle K","lat":52.1223764,"lng":21.5001793,"address":"50","city":"Grębiszew","region":"","services":["lpg"],"opening_hours":"24/7","p":{"n95":6.63,"n98":7.07,"on":6.63,"lpg":2.89,"src":"estimate","at":"2026-05-06T09:49:15+00:00"}},{"id":"pl_361043034","name":"Tramex","brand":"Tramex","lat":52.2134003,"lng":20.194848,"address":"","city":"","region":"","services":[],"opening_hours":"","p":{"n95":6.38,"n98":null,"on":6.38,"lpg":null,"src":"estimate","at":"2026-05-06T09:49:15+00:00"}},{"id":"pl_361045521","name":"BP","brand":"BP","lat":52.2248592,"lng":20.2835086,"address":"","city":"","region":"","services":["lpg"],"opening_hours":"24/7","p":{"n95":6.68,"n98":7.12,"on":6.68,"lpg":2.89,"src":"estimate","at":"2026-05-06T09:49:15+00:00"}},{"id":"pl_362294148","name":"Orlen","brand":"Orlen","lat":53.2561021,"lng":14.488861,"address":"","city":"","region":"","services":[],"opening_hours":"","p":{"n95":6.43,"n98":6.87,"on":6.43,"lpg":2.89,"src":"estimate","at":"2026-05-06T09:49:15+00:00"}},{"id":"pl_362294164","name":"WM","brand":"WM","lat":53.2733195,"lng":14.5086453,"address":"","city":"","region":"","services":[],"opening_hours":"","p":{"n95":6.38,"n98":null,"on":6.38,"lpg":null,"src":"estimate","at":"2026-05-06T09:49:15+00:00"}},{"id":"pl_362732986","name":"E LPG","brand":"E LPG","lat":51.43579,"lng":21.94776,"address":"Puławy","city":"Puławy","region":"","services":[],"opening_hours":"","p":{"n95":6.38,"n98":null,"on":6.38,"lpg":null,"src":"estimate","at":"2026-05-06T09:49:15+00:00"}},{"id":"pl_362733642","name":"Paliwa BAQ","brand":"Paliwa BAQ","lat":51.4162511,"lng":22.0005394,"address":"","city":"","region":"","services":[],"opening_hours":"","p":{"n95":6.38,"n98":null,"on":6.38,"lpg":null,"src":"estimate","at":"2026-05-06T09:49:15+00:00"}},{"id":"pl_362733732","name":"MOL","brand":"MOL","lat":51.4137017,"lng":22.001566,"address":"","city":"","region":"","services":[],"opening_hours":"","p":{"n95":6.38,"n98":null,"on":6.38,"lpg":null,"src":"estimate","at":"2026-05-06T09:49:15+00:00"}},{"id":"pl_362733825","name":"Carrefour","brand":"Carrefour","lat":51.414369,"lng":21.9754918,"address":"","city":"","region":"","services":[],"opening_hours":"Mo-Sa 07:00-22:00, Su 08:00-21:00","p":{"n95":6.38,"n98":null,"on":6.38,"lpg":null,"src":"estimate","at":"2026-05-06T09:49:15+00:00"}},{"id":"pl_362733873","name":"Stacja Paliw \"Petropol\"","brand":"Petropol","lat":51.4680258,"lng":22.4707233,"address":"Lubartowska 44A","city":"Kamionka","region":"","services":["lpg"],"opening_hours":"Mo-Su 06:00-22:00","p":{"n95":6.38,"n98":null,"on":6.38,"lpg":null,"src":"estimate","at":"2026-05-06T09:49:15+00:00"}},{"id":"pl_362733957","name":"LPG","brand":"LPG","lat":51.4095071,"lng":21.9120973,"address":"Puławska 51","city":"Klikawa","region":"","services":[],"opening_hours":"","p":{"n95":6.38,"n98":null,"on":6.38,"lpg":null,"src":"estimate","at":"2026-05-06T09:49:15+00:00"}},{"id":"pl_362734194","name":"Stacja paliw","brand":"Stacja paliw","lat":51.465894,"lng":22.0559806,"address":"Osiny","city":"Osiny","region":"","services":["lpg"],"opening_hours":"24/7","p":{"n95":6.38,"n98":null,"on":6.38,"lpg":null,"src":"estimate","at":"2026-05-06T09:49:15+00:00"}},{"id":"pl_365661385","name":"KDM","brand":"KDM","lat":50.8903203,"lng":14.8311131,"address":"","city":"","region":"","services":["lpg"],"opening_hours":"24/7","p":{"n95":6.38,"n98":null,"on":6.38,"lpg":null,"src":"estimate","at":"2026-05-06T09:49:15+00:00"}},{"id":"pl_368143685","name":"MOL","brand":"MOL","lat":51.7455415,"lng":20.911455,"address":"","city":"","region":"","services":[],"opening_hours":"24/7","p":{"n95":6.38,"n98":null,"on":6.38,"lpg":null,"src":"estimate","at":"2026-05-06T09:49:15+00:00"}},{"id":"pl_368143686","name":"Circle K","brand":"Circle K","lat":51.3665119,"lng":21.490182,"address":"","city":"","region":"","services":[],"opening_hours":"","p":{"n95":6.63,"n98":7.07,"on":6.63,"lpg":2.89,"src":"estimate","at":"2026-05-06T09:49:15+00:00"}},{"id":"pl_368143689","name":"MOL","brand":"MOL","lat":51.5947498,"lng":21.5337708,"address":"Warszawska 59","city":"Kozienice","region":"","services":[],"opening_hours":"","p":{"n95":6.38,"n98":null,"on":6.38,"lpg":null,"src":"estimate","at":"2026-05-06T09:49:15+00:00"}},{"id":"pl_368143691","name":"Moya","brand":"Moya","lat":51.7464425,"lng":20.9094467,"address":"","city":"","region":"","services":[],"opening_hours":"24/7","p":{"n95":6.23,"n98":null,"on":6.23,"lpg":2.89,"src":"estimate","at":"2026-05-06T09:49:15+00:00"}},{"id":"pl_368143702","name":"Avia","brand":"Avia","lat":51.358878,"lng":21.2068541,"address":"","city":"","region":"","services":[],"opening_hours":"24/7","p":{"n95":6.38,"n98":null,"on":6.38,"lpg":null,"src":"estimate","at":"2026-05-06T09:49:15+00:00"}},{"id":"pl_368143716","name":"PP","brand":"PP","lat":51.2133558,"lng":21.2479212,"address":"","city":"","region":"","services":[],"opening_hours":"","p":{"n95":6.38,"n98":null,"on":6.38,"lpg":null,"src":"estimate","at":"2026-05-06T09:49:15+00:00"}},{"id":"pl_368143717","name":"Orlen","brand":"Orlen","lat":51.1673714,"lng":21.2324434,"address":"Danuty Siedzikówny \"Inki\" 16","city":"Iłża","region":"","services":[],"opening_hours":"","p":{"n95":6.43,"n98":6.87,"on":6.43,"lpg":2.89,"src":"estimate","at":"2026-05-06T09:49:15+00:00"}},{"id":"pl_368143721","name":"Amic","brand":"Amic","lat":51.3018726,"lng":20.9729254,"address":"7","city":"Dobrut","region":"","services":[],"opening_hours":"","p":{"n95":6.28,"n98":null,"on":6.28,"lpg":2.89,"src":"estimate","at":"2026-05-06T09:49:15+00:00"}},{"id":"pl_368143734","name":"Moya","brand":"Moya","lat":51.6869556,"lng":21.5616228,"address":"","city":"","region":"","services":["lpg"],"opening_hours":"","p":{"n95":6.23,"n98":null,"on":6.23,"lpg":2.89,"src":"estimate","at":"2026-05-06T09:49:15+00:00"}},{"id":"pl_368143737","name":"Trakt","brand":"Trakt","lat":51.5362928,"lng":20.5555254,"address":"","city":"","region":"","services":[],"opening_hours":"","p":{"n95":6.38,"n98":null,"on":6.38,"lpg":null,"src":"estimate","at":"2026-05-06T09:49:15+00:00"}},{"id":"pl_368143821","name":"Orlen","brand":"Orlen","lat":51.3585102,"lng":21.5657093,"address":"Wojska Polskiego 111","city":"Zwoleń","region":"","services":["lpg"],"opening_hours":"24/7","p":{"n95":6.43,"n98":6.87,"on":6.43,"lpg":2.89,"src":"estimate","at":"2026-05-06T09:49:15+00:00"}},{"id":"pl_370442184","name":"Pieprzyk","brand":"Pieprzyk","lat":51.0831162,"lng":17.0597478,"address":"","city":"","region":"","services":[],"opening_hours":"","p":{"n95":6.38,"n98":null,"on":6.38,"lpg":null,"src":"estimate","at":"2026-05-06T09:49:15+00:00"}},{"id":"pl_371156991","name":"Amic","brand":"Amic Energy","lat":53.3450598,"lng":14.8719238,"address":"","city":"","region":"","services":[],"opening_hours":"","p":{"n95":6.28,"n98":null,"on":6.28,"lpg":2.89,"src":"estimate","at":"2026-05-06T09:49:15+00:00"}},{"id":"pl_372188522","name":"Stacja paliw","brand":"Stacja paliw","lat":51.13949,"lng":23.48793,"address":"Kolejowa","city":"Chełm","region":"","services":[],"opening_hours":"","p":{"n95":6.38,"n98":null,"on":6.38,"lpg":null,"src":"estimate","at":"2026-05-06T09:49:15+00:00"}},{"id":"pl_372188545","name":"Stacja paliw","brand":"Stacja paliw","lat":50.4557936,"lng":22.2431595,"address":"","city":"","region":"","services":["lpg"],"opening_hours":"Mo-Sa 05:00-22:00; Su 06:00-22:00","p":{"n95":6.38,"n98":null,"on":6.38,"lpg":null,"src":"estimate","at":"2026-05-06T09:49:15+00:00"}},{"id":"pl_372188667","name":"Stacja paliw","brand":"Stacja paliw","lat":51.1435596,"lng":23.4754843,"address":"Chełm","city":"Chełm","region":"","services":[],"opening_hours":"","p":{"n95":6.38,"n98":null,"on":6.38,"lpg":null,"src":"estimate","at":"2026-05-06T09:49:15+00:00"}},{"id":"pl_372188673","name":"Orlen","brand":"Orlen","lat":50.609972,"lng":22.008085,"address":"","city":"","region":"","services":["lpg"],"opening_hours":"","p":{"n95":6.43,"n98":6.87,"on":6.43,"lpg":2.89,"src":"estimate","at":"2026-05-06T09:49:15+00:00"}},{"id":"pl_372188682","name":"Orlen","brand":"Orlen","lat":50.6628448,"lng":21.8488129,"address":"","city":"","region":"","services":["lpg"],"opening_hours":"","p":{"n95":6.43,"n98":6.87,"on":6.43,"lpg":2.89,"src":"estimate","at":"2026-05-06T09:49:15+00:00"}},{"id":"pl_372188684","name":"Petrochemia","brand":"Petrochemia","lat":51.1616643,"lng":22.9701215,"address":"","city":"","region":"","services":[],"opening_hours":"","p":{"n95":6.38,"n98":null,"on":6.38,"lpg":null,"src":"estimate","at":"2026-05-06T09:49:15+00:00"}},{"id":"pl_372188695","name":"Stacja paliw","brand":"Stacja paliw","lat":51.1432764,"lng":23.4936548,"address":"Chełm","city":"Chełm","region":"","services":[],"opening_hours":"","p":{"n95":6.38,"n98":null,"on":6.38,"lpg":null,"src":"estimate","at":"2026-05-06T09:49:15+00:00"}},{"id":"pl_372188706","name":"Stacja paliw","brand":"Stacja paliw","lat":51.14784,"lng":23.48525,"address":"Chełm","city":"Chełm","region":"","services":[],"opening_hours":"","p":{"n95":6.38,"n98":null,"on":6.38,"lpg":null,"src":"estimate","at":"2026-05-06T09:49:15+00:00"}},{"id":"pl_372188714","name":"Pagmex","brand":"Pagmex","lat":51.145212,"lng":23.4739234,"address":"Chełm","city":"Chełm","region":"","services":[],"opening_hours":"","p":{"n95":6.38,"n98":null,"on":6.38,"lpg":null,"src":"estimate","at":"2026-05-06T09:49:15+00:00"}},{"id":"pl_372188784","name":"Eko","brand":"Eko","lat":51.14818,"lng":23.48742,"address":"Chełm","city":"Chełm","region":"","services":[],"opening_hours":"","p":{"n95":6.38,"n98":null,"on":6.38,"lpg":null,"src":"estimate","at":"2026-05-06T09:49:15+00:00"}},{"id":"pl_372188829","name":"EXoil","brand":"EXoil","lat":51.1453975,"lng":23.4998157,"address":"Chełm","city":"Chełm","region":"","services":[],"opening_hours":"","p":{"n95":6.38,"n98":null,"on":6.38,"lpg":null,"src":"estimate","at":"2026-05-06T09:49:15+00:00"}},{"id":"pl_372188836","name":"Orlen","brand":"Orlen","lat":51.1299885,"lng":23.4677922,"address":"Aleja Armii Krajowej 5","city":"Chełm","region":"","services":["lpg"],"opening_hours":"","p":{"n95":6.43,"n98":6.87,"on":6.43,"lpg":2.89,"src":"estimate","at":"2026-05-06T09:49:15+00:00"}},{"id":"pl_372188846","name":"Stacja paliw","brand":"Stacja paliw","lat":51.1470826,"lng":23.4851159,"address":"Chełm","city":"Chełm","region":"","services":[],"opening_hours":"","p":{"n95":6.38,"n98":null,"on":6.38,"lpg":null,"src":"estimate","at":"2026-05-06T09:49:15+00:00"}},{"id":"pl_372188904","name":"MOL","brand":"MOL","lat":51.1443695,"lng":23.4751594,"address":"Aleja Przyjaźni 5","city":"Chełm","region":"","services":[],"opening_hours":"","p":{"n95":6.38,"n98":null,"on":6.38,"lpg":null,"src":"estimate","at":"2026-05-06T09:49:15+00:00"}},{"id":"pl_372188984","name":"BP Chełm","brand":"BP","lat":51.1385701,"lng":23.4858009,"address":"Kolejowa","city":"Chełm","region":"","services":["lpg"],"opening_hours":"","p":{"n95":6.68,"n98":7.12,"on":6.68,"lpg":2.89,"src":"estimate","at":"2026-05-06T09:49:15+00:00"}},{"id":"pl_372188988","name":"Orlen","brand":"Orlen","lat":51.1438,"lng":23.50441,"address":"Chełm","city":"Chełm","region":"","services":[],"opening_hours":"","p":{"n95":6.43,"n98":6.87,"on":6.43,"lpg":2.89,"src":"estimate","at":"2026-05-06T09:49:15+00:00"}},{"id":"pl_372189603","name":"Total Nisko","brand":"Total","lat":50.5393469,"lng":22.0949875,"address":"","city":"","region":"","services":["lpg"],"opening_hours":"24/7","p":{"n95":6.48,"n98":null,"on":6.48,"lpg":null,"src":"estimate","at":"2026-05-06T09:49:15+00:00"}},{"id":"pl_372190384","name":"EKOPAL","brand":"EKOPAL","lat":50.7887389,"lng":22.8443765,"address":"","city":"","region":"","services":["lpg"],"opening_hours":"Mo-Su 06:00-22:00","p":{"n95":6.38,"n98":null,"on":6.38,"lpg":null,"src":"estimate","at":"2026-05-06T09:49:15+00:00"}},{"id":"pl_372190451","name":"Ekopal","brand":"Ekopal","lat":50.8715233,"lng":22.674781,"address":"Nowy Dwór","city":"Nowy Dwór","region":"","services":[],"opening_hours":"","p":{"n95":6.38,"n98":null,"on":6.38,"lpg":null,"src":"estimate","at":"2026-05-06T09:49:15+00:00"}},{"id":"pl_372190489","name":"Avia","brand":"Avia","lat":50.8201194,"lng":22.7241258,"address":"","city":"","region":"","services":["lpg"],"opening_hours":"Mo-Su 06:00-22:00","p":{"n95":6.38,"n98":null,"on":6.38,"lpg":null,"src":"estimate","at":"2026-05-06T09:49:15+00:00"}},{"id":"pl_372190562","name":"Orlen","brand":"Orlen","lat":50.5047248,"lng":22.1423294,"address":"Nisko","city":"Nisko","region":"","services":["lpg"],"opening_hours":"","p":{"n95":6.43,"n98":6.87,"on":6.43,"lpg":2.89,"src":"estimate","at":"2026-05-06T09:49:15+00:00"}},{"id":"pl_373113029","name":"BP Meduza","brand":"BP","lat":52.1331258,"lng":20.7374882,"address":"","city":"","region":"","services":["lpg"],"opening_hours":"","p":{"n95":6.68,"n98":7.12,"on":6.68,"lpg":2.89,"src":"estimate","at":"2026-05-06T09:49:15+00:00"}},{"id":"pl_373279759","name":"Baltica","brand":"Baltica","lat":52.2191174,"lng":20.838865,"address":"","city":"","region":"","services":["lpg"],"opening_hours":"","p":{"n95":6.38,"n98":null,"on":6.38,"lpg":null,"src":"estimate","at":"2026-05-06T09:49:15+00:00"}},{"id":"pl_376036130","name":"Orlen","brand":"Orlen","lat":51.1574166,"lng":15.0425838,"address":"","city":"","region":"","services":["lpg"],"opening_hours":"24/7","p":{"n95":6.43,"n98":6.87,"on":6.43,"lpg":2.89,"src":"estimate","at":"2026-05-06T09:49:15+00:00"}},{"id":"pl_381930634","name":"Shell","brand":"Shell","lat":52.5748558,"lng":14.641879,"address":"","city":"","region":"","services":[],"opening_hours":"","p":{"n95":6.73,"n98":7.17,"on":6.73,"lpg":null,"src":"estimate","at":"2026-05-06T09:49:15+00:00"}},{"id":"pl_381930697","name":"Circle K","brand":"Circle K","lat":52.5804748,"lng":14.6395063,"address":"Władysława Sikorskiego 1","city":"Kostrzyn nad Odrą","region":"","services":[],"opening_hours":"24/7","p":{"n95":6.63,"n98":7.07,"on":6.63,"lpg":2.89,"src":"estimate","at":"2026-05-06T09:49:15+00:00"}},{"id":"pl_383886124","name":"Oktan","brand":"Oktan","lat":51.1470244,"lng":15.1780246,"address":"","city":"","region":"","services":["lpg"],"opening_hours":"","p":{"n95":6.38,"n98":null,"on":6.38,"lpg":null,"src":"estimate","at":"2026-05-06T09:49:15+00:00"}},{"id":"pl_383902789","name":"Watis","brand":"Cetan","lat":51.1044452,"lng":15.3050147,"address":"","city":"","region":"","services":["lpg","adblue"],"opening_hours":"","p":{"n95":6.38,"n98":null,"on":6.38,"lpg":null,"src":"estimate","at":"2026-05-06T09:49:15+00:00"}},{"id":"pl_383902793","name":"Orlen","brand":"Orlen","lat":51.0993086,"lng":15.3092571,"address":"","city":"","region":"","services":["lpg"],"opening_hours":"","p":{"n95":6.43,"n98":6.87,"on":6.43,"lpg":2.89,"src":"estimate","at":"2026-05-06T09:49:15+00:00"}},{"id":"pl_385384927","name":"Stacja paliw","brand":"Stacja paliw","lat":52.4778125,"lng":15.7807148,"address":"","city":"","region":"","services":[],"opening_hours":"","p":{"n95":6.38,"n98":null,"on":6.38,"lpg":null,"src":"estimate","at":"2026-05-06T09:49:15+00:00"}},{"id":"pl_390308229","name":"Stacja Paliw","brand":"Stacja Paliw","lat":52.4617033,"lng":21.222283,"address":"","city":"","region":"","services":[],"opening_hours":"","p":{"n95":6.38,"n98":null,"on":6.38,"lpg":null,"src":"estimate","at":"2026-05-06T09:49:15+00:00"}},{"id":"pl_391052402","name":"Shell 4134 Europejska","brand":"Shell","lat":53.420916,"lng":14.5007928,"address":"Dworska","city":"Szczecin","region":"","services":["lpg"],"opening_hours":"24/7","p":{"n95":6.73,"n98":7.17,"on":6.73,"lpg":null,"src":"estimate","at":"2026-05-06T09:49:15+00:00"}},{"id":"pl_392667581","name":"Shell","brand":"Shell","lat":50.0334724,"lng":19.9693655,"address":"","city":"","region":"","services":["lpg"],"opening_hours":"24/7","p":{"n95":6.73,"n98":7.17,"on":6.73,"lpg":null,"src":"estimate","at":"2026-05-06T09:49:15+00:00"}},{"id":"pl_409854899","name":"Slovnaft Partner","brand":"Slovnaft","lat":50.8046799,"lng":20.4475593,"address":"1C","city":"Chęciny","region":"","services":["lpg"],"opening_hours":"","p":{"n95":6.38,"n98":null,"on":6.38,"lpg":null,"src":"estimate","at":"2026-05-06T09:49:15+00:00"}},{"id":"pl_410375102","name":"Circle K Express","brand":"Circle K","lat":53.454797,"lng":14.4731624,"address":"","city":"","region":"","services":[],"opening_hours":"","p":{"n95":6.63,"n98":7.07,"on":6.63,"lpg":2.89,"src":"estimate","at":"2026-05-06T09:49:15+00:00"}},{"id":"pl_410539455","name":"Circle K","brand":"Circle K","lat":52.1879429,"lng":20.9107255,"address":"Aleje Jerozolimskie 228","city":"Warszawa","region":"","services":[],"opening_hours":"24/7","p":{"n95":6.63,"n98":7.07,"on":6.63,"lpg":2.89,"src":"estimate","at":"2026-05-06T09:49:15+00:00"}},{"id":"pl_410703559","name":"Orlen","brand":"Orlen","lat":52.2240961,"lng":21.0594601,"address":"Wersalska 3","city":"Warszawa","region":"","services":["lpg"],"opening_hours":"24/7","p":{"n95":6.43,"n98":6.87,"on":6.43,"lpg":2.89,"src":"estimate","at":"2026-05-06T09:49:15+00:00"}},{"id":"pl_410796506","name":"BP Okęcie","brand":"BP","lat":52.1848651,"lng":20.954295,"address":"Aleja Krakowska 208","city":"Warszawa","region":"","services":["lpg","adblue"],"opening_hours":"24/7","p":{"n95":6.68,"n98":7.12,"on":6.68,"lpg":2.89,"src":"estimate","at":"2026-05-06T09:49:15+00:00"}},{"id":"pl_411513532","name":"Shell","brand":"Shell","lat":52.2230347,"lng":20.931052,"address":"Wolska 195","city":"Warszawa","region":"","services":[],"opening_hours":"24/7","p":{"n95":6.73,"n98":7.17,"on":6.73,"lpg":null,"src":"estimate","at":"2026-05-06T09:49:15+00:00"}},{"id":"pl_413680365","name":"Circle K","brand":"Circle K","lat":51.0961528,"lng":17.0400163,"address":"","city":"","region":"","services":["lpg"],"opening_hours":"","p":{"n95":6.63,"n98":7.07,"on":6.63,"lpg":2.89,"src":"estimate","at":"2026-05-06T09:49:15+00:00"}},{"id":"pl_416537105","name":"Artus","brand":"Artus","lat":52.1912992,"lng":20.9401497,"address":"","city":"","region":"","services":[],"opening_hours":"","p":{"n95":6.38,"n98":null,"on":6.38,"lpg":null,"src":"estimate","at":"2026-05-06T09:49:15+00:00"}},{"id":"pl_417038510","name":"Circle K","brand":"Circle K","lat":52.4567936,"lng":16.9848527,"address":"","city":"","region":"","services":["lpg"],"opening_hours":"24/7","p":{"n95":6.63,"n98":7.07,"on":6.63,"lpg":2.89,"src":"estimate","at":"2026-05-06T09:49:15+00:00"}},{"id":"pl_417904171","name":"Stacja paliw","brand":"Stacja paliw","lat":50.6980302,"lng":20.4603682,"address":"Sobków","city":"Sobków","region":"","services":[],"opening_hours":"","p":{"n95":6.38,"n98":null,"on":6.38,"lpg":null,"src":"estimate","at":"2026-05-06T09:49:15+00:00"}},{"id":"pl_417909148","name":"Orlen","brand":"Orlen","lat":50.85474,"lng":21.08588,"address":"Nowa Słupia","city":"Nowa Słupia","region":"","services":[],"opening_hours":"","p":{"n95":6.43,"n98":6.87,"on":6.43,"lpg":2.89,"src":"estimate","at":"2026-05-06T09:49:15+00:00"}},{"id":"pl_417910401","name":"Orlen","brand":"Orlen","lat":51.0720362,"lng":19.4190124,"address":"","city":"","region":"","services":["lpg"],"opening_hours":"24/7","p":{"n95":6.43,"n98":6.87,"on":6.43,"lpg":2.89,"src":"estimate","at":"2026-05-06T09:49:15+00:00"}},{"id":"pl_417910468","name":"Stacja paliw","brand":"Stacja paliw","lat":50.33922,"lng":21.44745,"address":"","city":"","region":"","services":[],"opening_hours":"","p":{"n95":6.38,"n98":null,"on":6.38,"lpg":null,"src":"estimate","at":"2026-05-06T09:49:15+00:00"}},{"id":"pl_417910498","name":"Orlen","brand":"Orlen","lat":50.4913864,"lng":21.5504257,"address":"Baranów Sandomierski","city":"Baranów Sandomierski","region":"","services":[],"opening_hours":"","p":{"n95":6.43,"n98":6.87,"on":6.43,"lpg":2.89,"src":"estimate","at":"2026-05-06T09:49:15+00:00"}},{"id":"pl_417916479","name":"Circle K","brand":"Circle K","lat":50.5707809,"lng":21.6912425,"address":"","city":"","region":"","services":[],"opening_hours":"","p":{"n95":6.63,"n98":7.07,"on":6.63,"lpg":2.89,"src":"estimate","at":"2026-05-06T09:49:15+00:00"}},{"id":"pl_417916999","name":"Stacja paliw Top Gaz","brand":"Stacja paliw Top Gaz","lat":50.3848204,"lng":21.4592134,"address":"","city":"","region":"","services":["lpg"],"opening_hours":"","p":{"n95":6.38,"n98":null,"on":6.38,"lpg":null,"src":"estimate","at":"2026-05-06T09:49:15+00:00"}},{"id":"pl_419354159","name":"Orlen","brand":"Orlen","lat":51.1267067,"lng":17.0464878,"address":"Jedności Narodowej 156","city":"Wrocław","region":"","services":["lpg"],"opening_hours":"24/7","p":{"n95":6.43,"n98":6.87,"on":6.43,"lpg":2.89,"src":"estimate","at":"2026-05-06T09:49:15+00:00"}},{"id":"pl_421526087","name":"Circle K","brand":"Circle K","lat":52.2144889,"lng":21.1340652,"address":"","city":"","region":"","services":["lpg"],"opening_hours":"24/7","p":{"n95":6.63,"n98":7.07,"on":6.63,"lpg":2.89,"src":"estimate","at":"2026-05-06T09:49:15+00:00"}},{"id":"pl_422635717","name":"BP Staw","brand":"BP","lat":50.2451539,"lng":19.0374005,"address":"Aleja Górnośląska 55","city":"Katowice","region":"","services":["lpg"],"opening_hours":"","p":{"n95":6.68,"n98":7.12,"on":6.68,"lpg":2.89,"src":"estimate","at":"2026-05-06T09:49:15+00:00"}},{"id":"pl_429234951","name":"Orlen","brand":"Orlen","lat":52.1486717,"lng":19.9255304,"address":"72A","city":"Goleńsko","region":"","services":["lpg"],"opening_hours":"24/7","p":{"n95":6.43,"n98":6.87,"on":6.43,"lpg":2.89,"src":"estimate","at":"2026-05-06T09:49:15+00:00"}},{"id":"pl_430305044","name":"Top-Gaz","brand":"Top-Gaz","lat":50.2875906,"lng":21.4484362,"address":"Wolności 66","city":"Mielec","region":"","services":[],"opening_hours":"","p":{"n95":6.38,"n98":null,"on":6.38,"lpg":null,"src":"estimate","at":"2026-05-06T09:49:15+00:00"}},{"id":"pl_430694351","name":"Stacja LPG","brand":"Stacja LPG","lat":50.2036795,"lng":19.7820793,"address":"","city":"","region":"","services":["lpg"],"opening_hours":"","p":{"n95":6.38,"n98":null,"on":6.38,"lpg":null,"src":"estimate","at":"2026-05-06T09:49:15+00:00"}},{"id":"pl_430788862","name":"Avia","brand":"Avia","lat":52.7103652,"lng":16.385856,"address":"Adama Mickiewicza","city":"Wronki","region":"","services":["lpg"],"opening_hours":"Mo-Su 05:00-23:00","p":{"n95":6.38,"n98":null,"on":6.38,"lpg":null,"src":"estimate","at":"2026-05-06T09:49:15+00:00"}},{"id":"pl_430999459","name":"Orlen","brand":"Orlen","lat":52.4269732,"lng":16.9350574,"address":"","city":"","region":"","services":["lpg"],"opening_hours":"24/7","p":{"n95":6.43,"n98":6.87,"on":6.43,"lpg":2.89,"src":"estimate","at":"2026-05-06T09:49:15+00:00"}},{"id":"pl_431258856","name":"MARO-TRANS","brand":"MARO-TRANS","lat":50.1091754,"lng":21.4886384,"address":"Mielecka 5","city":"Brzeźnica","region":"","services":["lpg"],"opening_hours":"","p":{"n95":6.38,"n98":null,"on":6.38,"lpg":null,"src":"estimate","at":"2026-05-06T09:49:15+00:00"}},{"id":"pl_440272271","name":"Stacja paliw","brand":"Stacja paliw","lat":50.2249661,"lng":19.1489615,"address":"","city":"","region":"","services":[],"opening_hours":"","p":{"n95":6.38,"n98":null,"on":6.38,"lpg":null,"src":"estimate","at":"2026-05-06T09:49:15+00:00"}},{"id":"pl_442050457","name":"BP","brand":"BP","lat":54.0553305,"lng":14.9402255,"address":"Wojska Polskiego","city":"Pobierowo","region":"","services":["lpg"],"opening_hours":"","p":{"n95":6.68,"n98":7.12,"on":6.68,"lpg":2.89,"src":"estimate","at":"2026-05-06T09:49:15+00:00"}},{"id":"pl_442461931","name":"Auchan","brand":"Auchan","lat":54.5851465,"lng":18.3687628,"address":"","city":"","region":"","services":["lpg"],"opening_hours":"","p":{"n95":6.13,"n98":null,"on":6.13,"lpg":null,"src":"estimate","at":"2026-05-06T09:49:15+00:00"}},{"id":"pl_442667686","name":"Stacja paliw","brand":"Stacja paliw","lat":51.4439497,"lng":19.7534015,"address":"","city":"","region":"","services":[],"opening_hours":"","p":{"n95":6.38,"n98":null,"on":6.38,"lpg":null,"src":"estimate","at":"2026-05-06T09:49:15+00:00"}},{"id":"pl_442668115","name":"Bak Stacja Benzynowa","brand":"Bak Stacja Benzynowa","lat":51.6143914,"lng":20.0673807,"address":"58","city":"Olszowiec","region":"","services":["lpg"],"opening_hours":"","p":{"n95":6.38,"n98":null,"on":6.38,"lpg":null,"src":"estimate","at":"2026-05-06T09:49:15+00:00"}},{"id":"pl_442687538","name":"Stacja paliw","brand":"Stacja paliw","lat":53.5787349,"lng":19.5862163,"address":"","city":"","region":"","services":[],"opening_hours":"","p":{"n95":6.38,"n98":null,"on":6.38,"lpg":null,"src":"estimate","at":"2026-05-06T09:49:15+00:00"}},{"id":"pl_443430260","name":"Stacja paliw","brand":"Stacja paliw","lat":52.0866259,"lng":18.8221778,"address":"","city":"","region":"","services":[],"opening_hours":"","p":{"n95":6.38,"n98":null,"on":6.38,"lpg":null,"src":"estimate","at":"2026-05-06T09:49:15+00:00"}},{"id":"pl_443430261","name":"Stacja paliw","brand":"Stacja paliw","lat":52.0811062,"lng":18.8251961,"address":"","city":"","region":"","services":[],"opening_hours":"","p":{"n95":6.38,"n98":null,"on":6.38,"lpg":null,"src":"estimate","at":"2026-05-06T09:49:15+00:00"}},{"id":"pl_443430262","name":"EKO-JAZ","brand":"EKO-JAZ","lat":52.0949202,"lng":18.7965514,"address":"","city":"","region":"","services":["lpg"],"opening_hours":"","p":{"n95":6.38,"n98":null,"on":6.38,"lpg":null,"src":"estimate","at":"2026-05-06T09:49:15+00:00"}},{"id":"pl_444964355","name":"Stacja paliw","brand":"Stacja paliw","lat":53.1309687,"lng":23.0744863,"address":"","city":"","region":"","services":[],"opening_hours":"","p":{"n95":6.38,"n98":null,"on":6.38,"lpg":null,"src":"estimate","at":"2026-05-06T09:49:15+00:00"}},{"id":"pl_450090249","name":"Orlen","brand":"Orlen","lat":52.5895014,"lng":20.8095591,"address":"Warszawska","city":"Nasielsk","region":"","services":[],"opening_hours":"","p":{"n95":6.43,"n98":6.87,"on":6.43,"lpg":2.89,"src":"estimate","at":"2026-05-06T09:49:15+00:00"}},{"id":"pl_457458770","name":"Stacja paliw","brand":"Stacja paliw","lat":50.9868141,"lng":22.1472864,"address":"","city":"","region":"","services":[],"opening_hours":"","p":{"n95":6.38,"n98":null,"on":6.38,"lpg":null,"src":"estimate","at":"2026-05-06T09:49:15+00:00"}},{"id":"pl_458440934","name":"MOL","brand":"MOL","lat":52.2163506,"lng":20.8589721,"address":"","city":"","region":"","services":["lpg"],"opening_hours":"24/7","p":{"n95":6.38,"n98":null,"on":6.38,"lpg":null,"src":"estimate","at":"2026-05-06T09:49:15+00:00"}},{"id":"pl_459460662","name":"Shell","brand":"Shell","lat":51.793219,"lng":19.4180812,"address":"Bolesława Limanowskiego 181/185","city":"Łódź","region":"","services":[],"opening_hours":"","p":{"n95":6.73,"n98":7.17,"on":6.73,"lpg":null,"src":"estimate","at":"2026-05-06T09:49:15+00:00"}},{"id":"pl_463435014","name":"Horex","brand":"Horex","lat":51.5396868,"lng":14.7341149,"address":"Graniczna 3b","city":"Łęknica","region":"","services":[],"opening_hours":"","p":{"n95":6.38,"n98":null,"on":6.38,"lpg":null,"src":"estimate","at":"2026-05-06T09:49:15+00:00"}},{"id":"pl_464229385","name":"Stacja paliw","brand":"Stacja paliw","lat":52.518489,"lng":23.1345322,"address":"","city":"","region":"","services":[],"opening_hours":"","p":{"n95":6.38,"n98":null,"on":6.38,"lpg":null,"src":"estimate","at":"2026-05-06T09:49:15+00:00"}},{"id":"pl_469129060","name":"Circle K Express","brand":"Circle K","lat":51.0862815,"lng":17.0472174,"address":"","city":"","region":"","services":["lpg"],"opening_hours":"24/7","p":{"n95":6.63,"n98":7.07,"on":6.63,"lpg":2.89,"src":"estimate","at":"2026-05-06T09:49:15+00:00"}},{"id":"pl_470938452","name":"BP Andaluzja","brand":"BP","lat":50.3698129,"lng":18.9449086,"address":"Bytomska 50","city":"Piekary Śląskie","region":"","services":["lpg"],"opening_hours":"24/7","p":{"n95":6.68,"n98":7.12,"on":6.68,"lpg":2.89,"src":"estimate","at":"2026-05-06T09:49:15+00:00"}},{"id":"pl_472278434","name":"Orlen","brand":"Orlen","lat":50.2915714,"lng":18.7476141,"address":"Władysława Sikorskiego 115","city":"Gliwice","region":"","services":["lpg"],"opening_hours":"","p":{"n95":6.43,"n98":6.87,"on":6.43,"lpg":2.89,"src":"estimate","at":"2026-05-06T09:49:15+00:00"}},{"id":"pl_472593709","name":"Orlen","brand":"Orlen","lat":51.1777877,"lng":16.1582075,"address":"","city":"","region":"","services":[],"opening_hours":"","p":{"n95":6.43,"n98":6.87,"on":6.43,"lpg":2.89,"src":"estimate","at":"2026-05-06T09:49:15+00:00"}},{"id":"pl_475981157","name":"Alfa","brand":"Alfa","lat":50.4132835,"lng":22.3433484,"address":"","city":"","region":"","services":[],"opening_hours":"Mo-Sa 06:00-20:00; Su 09:00-19:00","p":{"n95":6.38,"n98":null,"on":6.38,"lpg":null,"src":"estimate","at":"2026-05-06T09:49:15+00:00"}},{"id":"pl_476214512","name":"Lotos","brand":"Lotos","lat":52.9685041,"lng":19.9033082,"address":"Mławska 13","city":"Bieżuń","region":"","services":[],"opening_hours":"","p":{"n95":6.43,"n98":null,"on":6.43,"lpg":2.89,"src":"estimate","at":"2026-05-06T09:49:15+00:00"}},{"id":"pl_476214768","name":"Lotos Optima","brand":"Lotos Optima","lat":53.3885579,"lng":19.9309954,"address":"","city":"","region":"","services":[],"opening_hours":"Mo-Sa 06:00-22:00; Su 08:00-22:00","p":{"n95":6.43,"n98":null,"on":6.43,"lpg":2.89,"src":"estimate","at":"2026-05-06T09:49:15+00:00"}},{"id":"pl_476214790","name":"Orlen","brand":"Orlen","lat":53.4497992,"lng":20.0333305,"address":"Jabłonowo","city":"Jabłonowo","region":"","services":["lpg"],"opening_hours":"","p":{"n95":6.43,"n98":6.87,"on":6.43,"lpg":2.89,"src":"estimate","at":"2026-05-06T09:49:15+00:00"}},{"id":"pl_476214813","name":"Huzar","brand":"Huzar","lat":53.254399,"lng":20.8967901,"address":"Zygmunta Padlewskiego","city":"Chorzele","region":"","services":[],"opening_hours":"","p":{"n95":6.18,"n98":null,"on":6.18,"lpg":2.89,"src":"estimate","at":"2026-05-06T09:49:15+00:00"}},{"id":"pl_476214938","name":"LPG","brand":"LPG","lat":53.00022,"lng":20.91795,"address":"Sierakowo","city":"Sierakowo","region":"","services":[],"opening_hours":"","p":{"n95":6.38,"n98":null,"on":6.38,"lpg":null,"src":"estimate","at":"2026-05-06T09:49:15+00:00"}},{"id":"pl_476214955","name":"Orlen","brand":"Orlen","lat":52.8575023,"lng":20.6353581,"address":"Sońska 4","city":"Ciechanów","region":"","services":[],"opening_hours":"","p":{"n95":6.43,"n98":6.87,"on":6.43,"lpg":2.89,"src":"estimate","at":"2026-05-06T09:49:15+00:00"}},{"id":"pl_476215012","name":"BP","brand":"BP","lat":53.0747024,"lng":20.3531043,"address":"Wiśniewo","city":"Wiśniewo","region":"","services":["lpg"],"opening_hours":"24/7","p":{"n95":6.68,"n98":7.12,"on":6.68,"lpg":2.89,"src":"estimate","at":"2026-05-06T09:49:15+00:00"}},{"id":"pl_476215028","name":"Petrochemia Płock","brand":"Petrochemia Płock","lat":52.6267,"lng":20.71912,"address":"Świerkowo","city":"Świerkowo","region":"","services":[],"opening_hours":"","p":{"n95":6.38,"n98":null,"on":6.38,"lpg":null,"src":"estimate","at":"2026-05-06T09:49:15+00:00"}},{"id":"pl_476215141","name":"PPHU Hubertusk LPG Gaz","brand":"LPG","lat":52.7159387,"lng":21.0522154,"address":"618","city":"Pułtusk","region":"","services":[],"opening_hours":"","p":{"n95":6.38,"n98":null,"on":6.38,"lpg":null,"src":"estimate","at":"2026-05-06T09:49:15+00:00"}},{"id":"pl_476215145","name":"LUX-MOTOR OIL","brand":"LUX-MOTOR OIL","lat":52.9778472,"lng":21.4576288,"address":"Sadykierz","city":"Sadykierz","region":"","services":[],"opening_hours":"Mo-Su,PH 05:00-23:00","p":{"n95":6.38,"n98":null,"on":6.38,"lpg":null,"src":"estimate","at":"2026-05-06T09:49:15+00:00"}},{"id":"pl_476215148","name":"Stacja Paliw J w R Wszelaki","brand":"Petrochemia Płock","lat":52.9346173,"lng":19.2645874,"address":"54","city":"Janiszewo","region":"","services":[],"opening_hours":"","p":{"n95":6.38,"n98":null,"on":6.38,"lpg":null,"src":"estimate","at":"2026-05-06T09:49:15+00:00"}},{"id":"pl_476215872","name":"Orlen","brand":"Orlen","lat":53.3528107,"lng":20.4283667,"address":"Warszawska","city":"Nidzica","region":"","services":["lpg"],"opening_hours":"","p":{"n95":6.43,"n98":6.87,"on":6.43,"lpg":2.89,"src":"estimate","at":"2026-05-06T09:49:15+00:00"}},{"id":"pl_476215876","name":"Orlen","brand":"Orlen","lat":52.887576,"lng":20.2797657,"address":"Wyzwolenia 1b","city":"Strzegowo","region":"","services":[],"opening_hours":"","p":{"n95":6.43,"n98":6.87,"on":6.43,"lpg":2.89,"src":"estimate","at":"2026-05-06T09:49:15+00:00"}},{"id":"pl_476215965","name":"BP","brand":"BP","lat":53.4074202,"lng":19.5921267,"address":"Henryka Sienkiewicza 4","city":"Kurzętnik","region":"","services":["lpg"],"opening_hours":"24/7","p":{"n95":6.68,"n98":7.12,"on":6.68,"lpg":2.89,"src":"estimate","at":"2026-05-06T09:49:15+00:00"}},{"id":"pl_476215969","name":"Orlen","brand":"Orlen","lat":52.8765728,"lng":19.3690744,"address":"Warszawska 4","city":"Skępe","region":"","services":["lpg"],"opening_hours":"","p":{"n95":6.43,"n98":6.87,"on":6.43,"lpg":2.89,"src":"estimate","at":"2026-05-06T09:49:15+00:00"}},{"id":"pl_476531236","name":"Stacja Paliw - Jarosz","brand":"\"Jarosz\"","lat":49.9880234,"lng":18.2640963,"address":"","city":"","region":"","services":["lpg"],"opening_hours":"","p":{"n95":6.38,"n98":null,"on":6.38,"lpg":null,"src":"estimate","at":"2026-05-06T09:49:15+00:00"}},{"id":"pl_481952969","name":"Orlen","brand":"Orlen","lat":51.2422983,"lng":22.5407967,"address":"Głęboka 32","city":"Lublin","region":"","services":[],"opening_hours":"","p":{"n95":6.43,"n98":6.87,"on":6.43,"lpg":2.89,"src":"estimate","at":"2026-05-06T09:49:15+00:00"}},{"id":"pl_481952984","name":"Orlen","brand":"Orlen","lat":51.2643673,"lng":22.5720811,"address":"Aleja Spółdzielczości Pracy 30","city":"Lublin","region":"","services":["lpg"],"opening_hours":"24/7","p":{"n95":6.43,"n98":6.87,"on":6.43,"lpg":2.89,"src":"estimate","at":"2026-05-06T09:49:15+00:00"}},{"id":"pl_481953189","name":"Shell","brand":"Shell","lat":51.2535549,"lng":22.5620793,"address":"Bolesława Prusa 8a","city":"Lublin","region":"","services":["lpg"],"opening_hours":"","p":{"n95":6.73,"n98":7.17,"on":6.73,"lpg":null,"src":"estimate","at":"2026-05-06T09:49:15+00:00"}},{"id":"pl_481953193","name":"LPG","brand":"LPG","lat":51.25825,"lng":22.44639,"address":"Płouszowice","city":"Płouszowice","region":"","services":[],"opening_hours":"","p":{"n95":6.38,"n98":null,"on":6.38,"lpg":null,"src":"estimate","at":"2026-05-06T09:49:15+00:00"}},{"id":"pl_481953340","name":"Orlen","brand":"Orlen","lat":51.3259673,"lng":21.9508979,"address":"Doktora Tadeusza Tyszkiewicza","city":"Kazimierz Dolny","region":"","services":["lpg"],"opening_hours":"24/7","p":{"n95":6.43,"n98":6.87,"on":6.43,"lpg":2.89,"src":"estimate","at":"2026-05-06T09:49:15+00:00"}},{"id":"pl_481953349","name":"Artus","brand":"Artus","lat":51.1780111,"lng":22.4233221,"address":"","city":"","region":"","services":[],"opening_hours":"","p":{"n95":6.38,"n98":null,"on":6.38,"lpg":null,"src":"estimate","at":"2026-05-06T09:49:15+00:00"}},{"id":"pl_481953381","name":"LPG","brand":"LPG","lat":51.24332,"lng":22.65498,"address":"Mełgiewska","city":"Lublin","region":"","services":[],"opening_hours":"","p":{"n95":6.38,"n98":null,"on":6.38,"lpg":null,"src":"estimate","at":"2026-05-06T09:49:15+00:00"}},{"id":"pl_481953592","name":"LPG","brand":"LPG","lat":51.2403689,"lng":22.6782607,"address":"","city":"","region":"","services":[],"opening_hours":"","p":{"n95":6.38,"n98":null,"on":6.38,"lpg":null,"src":"estimate","at":"2026-05-06T09:49:15+00:00"}},{"id":"pl_484995159","name":"TransOil Express","brand":"TransOil Express","lat":50.3218367,"lng":19.103381,"address":"","city":"","region":"","services":[],"opening_hours":"","p":{"n95":6.38,"n98":null,"on":6.38,"lpg":null,"src":"estimate","at":"2026-05-06T09:49:15+00:00"}},{"id":"pl_485217183","name":"MOL","brand":"MOL","lat":50.3429504,"lng":18.9181406,"address":"","city":"","region":"","services":[],"opening_hours":"","p":{"n95":6.38,"n98":null,"on":6.38,"lpg":null,"src":"estimate","at":"2026-05-06T09:49:15+00:00"}},{"id":"pl_491513557","name":"BP","brand":"BP","lat":50.0847529,"lng":19.1118282,"address":"","city":"","region":"","services":["lpg","adblue"],"opening_hours":"24/7","p":{"n95":6.68,"n98":7.12,"on":6.68,"lpg":2.89,"src":"estimate","at":"2026-05-06T09:49:15+00:00"}},{"id":"pl_494590832","name":"Stacja paliw","brand":"Stacja paliw","lat":53.4291997,"lng":14.4662215,"address":"","city":"","region":"","services":[],"opening_hours":"","p":{"n95":6.38,"n98":null,"on":6.38,"lpg":null,"src":"estimate","at":"2026-05-06T09:49:15+00:00"}},{"id":"pl_494721555","name":"Stacja LPG","brand":"Janex","lat":50.0698591,"lng":20.011589,"address":"","city":"","region":"","services":["lpg"],"opening_hours":"24/7","p":{"n95":6.38,"n98":null,"on":6.38,"lpg":null,"src":"estimate","at":"2026-05-06T09:49:15+00:00"}},{"id":"pl_495206878","name":"MPO","brand":"Miejskie Przedsiębiorstwio Oczyszczania w Krakowie","lat":50.0702766,"lng":20.0064578,"address":"","city":"","region":"","services":["lpg"],"opening_hours":"PH,Mo-Su 00:00-24:00","p":{"n95":6.38,"n98":null,"on":6.38,"lpg":null,"src":"estimate","at":"2026-05-06T09:49:15+00:00"}},{"id":"pl_496315965","name":"Circle K","brand":"Circle K","lat":53.3849633,"lng":14.6420595,"address":"Gryfińska 60","city":"Szczecin","region":"","services":["lpg"],"opening_hours":"24/7","p":{"n95":6.63,"n98":7.07,"on":6.63,"lpg":2.89,"src":"estimate","at":"2026-05-06T09:49:15+00:00"}},{"id":"pl_496315984","name":"Orlen","brand":"Orlen","lat":53.3955415,"lng":14.615961,"address":"Eskadrowa 1","city":"Szczecin","region":"","services":["lpg"],"opening_hours":"","p":{"n95":6.43,"n98":6.87,"on":6.43,"lpg":2.89,"src":"estimate","at":"2026-05-06T09:49:15+00:00"}},{"id":"pl_498136729","name":"Pronar","brand":"Pronar","lat":52.840247,"lng":23.7634895,"address":"","city":"","region":"","services":[],"opening_hours":"","p":{"n95":6.38,"n98":null,"on":6.38,"lpg":null,"src":"estimate","at":"2026-05-06T09:49:15+00:00"}},{"id":"pl_498233984","name":"Orlen","brand":"Orlen","lat":51.7976918,"lng":16.6520397,"address":"","city":"","region":"","services":["lpg","adblue"],"opening_hours":"24/7","p":{"n95":6.43,"n98":6.87,"on":6.43,"lpg":2.89,"src":"estimate","at":"2026-05-06T09:49:15+00:00"}},{"id":"pl_498761356","name":"Shell","brand":"Shell","lat":50.3126194,"lng":19.1874782,"address":"","city":"","region":"","services":["lpg"],"opening_hours":"","p":{"n95":6.73,"n98":7.17,"on":6.73,"lpg":null,"src":"estimate","at":"2026-05-06T09:49:15+00:00"}},{"id":"pl_499874446","name":"Orlen","brand":"Orlen","lat":52.2804418,"lng":20.1241489,"address":"58A","city":"Wężyki","region":"","services":["lpg"],"opening_hours":"24/7","p":{"n95":6.43,"n98":6.87,"on":6.43,"lpg":2.89,"src":"estimate","at":"2026-05-06T09:49:15+00:00"}},{"id":"pl_499874507","name":"Krupińscy","brand":"Krupińscy","lat":52.01389,"lng":20.38488,"address":"","city":"","region":"","services":[],"opening_hours":"","p":{"n95":6.38,"n98":null,"on":6.38,"lpg":null,"src":"estimate","at":"2026-05-06T09:49:15+00:00"}},{"id":"pl_499874738","name":"LPG","brand":"LPG","lat":52.61678,"lng":20.38321,"address":"","city":"","region":"","services":[],"opening_hours":"","p":{"n95":6.38,"n98":null,"on":6.38,"lpg":null,"src":"estimate","at":"2026-05-06T09:49:15+00:00"}},{"id":"pl_499875030","name":"Artus","brand":"Artus","lat":52.21735,"lng":20.20001,"address":"1A","city":"Dachowa","region":"","services":["lpg"],"opening_hours":"24/7","p":{"n95":6.38,"n98":null,"on":6.38,"lpg":null,"src":"estimate","at":"2026-05-06T09:49:15+00:00"}},{"id":"pl_499875715","name":"Orlen","brand":"Bliska","lat":52.2667708,"lng":20.4692716,"address":"","city":"","region":"","services":["lpg"],"opening_hours":"24/7","p":{"n95":6.38,"n98":null,"on":6.38,"lpg":null,"src":"estimate","at":"2026-05-06T09:49:15+00:00"}},{"id":"pl_499879915","name":"Moya","brand":"Moya","lat":52.6388486,"lng":20.1434521,"address":"","city":"","region":"","services":["lpg"],"opening_hours":"","p":{"n95":6.23,"n98":null,"on":6.23,"lpg":2.89,"src":"estimate","at":"2026-05-06T09:49:15+00:00"}},{"id":"pl_499881139","name":"Na Rozdrożu","brand":"Bliska","lat":52.067928,"lng":20.0621773,"address":"Nieborów","city":"Nieborów","region":"","services":[],"opening_hours":"24/7","p":{"n95":6.38,"n98":null,"on":6.38,"lpg":null,"src":"estimate","at":"2026-05-06T09:49:15+00:00"}},{"id":"pl_500378949","name":"Shell","brand":"Shell","lat":50.8505477,"lng":16.4754182,"address":"","city":"","region":"","services":[],"opening_hours":"","p":{"n95":6.73,"n98":7.17,"on":6.73,"lpg":null,"src":"estimate","at":"2026-05-06T09:49:15+00:00"}},{"id":"pl_505370469","name":"Orlen","brand":"Orlen","lat":54.2098766,"lng":16.1528786,"address":"Morska 150a","city":"Koszalin","region":"","services":["lpg"],"opening_hours":"24/7","p":{"n95":6.43,"n98":6.87,"on":6.43,"lpg":2.89,"src":"estimate","at":"2026-05-06T09:49:15+00:00"}},{"id":"pl_506889803","name":"Circle K","brand":"Circle K","lat":50.0719117,"lng":20.0286454,"address":"Aleja Jana Pawła II 200","city":"Kraków","region":"","services":["lpg"],"opening_hours":"24/7","p":{"n95":6.63,"n98":7.07,"on":6.63,"lpg":2.89,"src":"estimate","at":"2026-05-06T09:49:15+00:00"}},{"id":"pl_507907780","name":"Stacja paliw","brand":"Stacja paliw","lat":51.1093311,"lng":22.1091533,"address":"","city":"","region":"","services":[],"opening_hours":"","p":{"n95":6.38,"n98":null,"on":6.38,"lpg":null,"src":"estimate","at":"2026-05-06T09:49:15+00:00"}},{"id":"pl_522089413","name":"Grupa Pieprzyk","brand":"Grupa Pieprzyk","lat":50.9149162,"lng":16.2444256,"address":"","city":"","region":"","services":[],"opening_hours":"","p":{"n95":6.38,"n98":null,"on":6.38,"lpg":null,"src":"estimate","at":"2026-05-06T09:49:15+00:00"}},{"id":"pl_523678074","name":"Shell","brand":"Shell","lat":53.4042743,"lng":14.5036633,"address":"","city":"","region":"","services":[],"opening_hours":"24/7","p":{"n95":6.73,"n98":7.17,"on":6.73,"lpg":null,"src":"estimate","at":"2026-05-06T09:49:15+00:00"}},{"id":"pl_528538283","name":"Stacja paliw","brand":"Stacja paliw","lat":51.9606517,"lng":18.5302837,"address":"WLK 83","city":"Wietchinin","region":"","services":[],"opening_hours":"","p":{"n95":6.38,"n98":null,"on":6.38,"lpg":null,"src":"estimate","at":"2026-05-06T09:49:15+00:00"}},{"id":"pl_528538730","name":"Orlen","brand":"Orlen","lat":51.9041989,"lng":18.6101242,"address":"Dobra","city":"Dobra","region":"","services":["lpg"],"opening_hours":"24/7","p":{"n95":6.43,"n98":6.87,"on":6.43,"lpg":2.89,"src":"estimate","at":"2026-05-06T09:49:15+00:00"}},{"id":"pl_528540292","name":"Stacja paliw","brand":"Stacja paliw","lat":51.29301,"lng":18.17193,"address":"Wieruszów","city":"Wieruszów","region":"","services":[],"opening_hours":"","p":{"n95":6.38,"n98":null,"on":6.38,"lpg":null,"src":"estimate","at":"2026-05-06T09:49:15+00:00"}},{"id":"pl_528541047","name":"Bliska","brand":"Bliska","lat":51.4166264,"lng":18.6029671,"address":"","city":"","region":"","services":[],"opening_hours":"24/7","p":{"n95":6.38,"n98":null,"on":6.38,"lpg":null,"src":"estimate","at":"2026-05-06T09:49:15+00:00"}},{"id":"pl_529534460","name":"Orlen","brand":"Orlen","lat":52.283318,"lng":17.8870285,"address":"Warszawska 66C","city":"Słupca","region":"","services":["lpg"],"opening_hours":"24/7","p":{"n95":6.43,"n98":6.87,"on":6.43,"lpg":2.89,"src":"estimate","at":"2026-05-06T09:49:15+00:00"}},{"id":"pl_531423015","name":"Circle K Express","brand":"Circle K","lat":52.5797675,"lng":14.6408615,"address":"","city":"","region":"","services":[],"opening_hours":"","p":{"n95":6.63,"n98":7.07,"on":6.63,"lpg":2.89,"src":"estimate","at":"2026-05-06T09:49:15+00:00"}},{"id":"pl_531595468","name":"Shell","brand":"Shell","lat":52.1044078,"lng":20.6355357,"address":"","city":"","region":"","services":[],"opening_hours":"Mo-Su,PH 08:00-08:00","p":{"n95":6.73,"n98":7.17,"on":6.73,"lpg":null,"src":"estimate","at":"2026-05-06T09:49:15+00:00"}},{"id":"pl_537204557","name":"LPG","brand":"LPG","lat":52.0474762,"lng":20.5941679,"address":"Kuklówka","city":"Kuklówka","region":"","services":["lpg"],"opening_hours":"","p":{"n95":6.38,"n98":null,"on":6.38,"lpg":null,"src":"estimate","at":"2026-05-06T09:49:15+00:00"}},{"id":"pl_537222384","name":"LPG","brand":"LPG","lat":52.0871119,"lng":20.9416676,"address":"Wojska Polskiego 92C","city":"Lesznowola","region":"","services":[],"opening_hours":"","p":{"n95":6.38,"n98":null,"on":6.38,"lpg":null,"src":"estimate","at":"2026-05-06T09:49:15+00:00"}},{"id":"pl_537234784","name":"Shell","brand":"Shell","lat":52.0835808,"lng":21.0373581,"address":"Generała Leopolda Okulickiego","city":"","region":"","services":[],"opening_hours":"24/7","p":{"n95":6.73,"n98":7.17,"on":6.73,"lpg":null,"src":"estimate","at":"2026-05-06T09:49:15+00:00"}},{"id":"pl_537259345","name":"Orlen","brand":"Orlen","lat":52.0287809,"lng":20.6749088,"address":"","city":"","region":"","services":[],"opening_hours":"","p":{"n95":6.43,"n98":6.87,"on":6.43,"lpg":2.89,"src":"estimate","at":"2026-05-06T09:49:15+00:00"}},{"id":"pl_537560669","name":"Shell","brand":"Shell","lat":53.1607181,"lng":16.7564414,"address":"","city":"","region":"","services":["lpg"],"opening_hours":"","p":{"n95":6.73,"n98":7.17,"on":6.73,"lpg":null,"src":"estimate","at":"2026-05-06T09:49:15+00:00"}},{"id":"pl_537653776","name":"Orlen","brand":"Orlen","lat":52.8958051,"lng":16.5509693,"address":"","city":"","region":"","services":["lpg"],"opening_hours":"24/7","p":{"n95":6.43,"n98":6.87,"on":6.43,"lpg":2.89,"src":"estimate","at":"2026-05-06T09:49:15+00:00"}},{"id":"pl_537885011","name":"CircleK","brand":"Circle K","lat":50.2832646,"lng":19.5512556,"address":"","city":"","region":"","services":["lpg"],"opening_hours":"24/7","p":{"n95":6.63,"n98":7.07,"on":6.63,"lpg":2.89,"src":"estimate","at":"2026-05-06T09:49:15+00:00"}},{"id":"pl_543381721","name":"Stacja paliw","brand":"Stacja paliw","lat":50.2080568,"lng":18.3090888,"address":"","city":"","region":"","services":["lpg"],"opening_hours":"","p":{"n95":6.38,"n98":null,"on":6.38,"lpg":null,"src":"estimate","at":"2026-05-06T09:49:15+00:00"}},{"id":"pl_544444405","name":"Orlen","brand":"Orlen","lat":50.039886,"lng":19.9625541,"address":"","city":"","region":"","services":["lpg"],"opening_hours":"24/7","p":{"n95":6.43,"n98":6.87,"on":6.43,"lpg":2.89,"src":"estimate","at":"2026-05-06T09:49:15+00:00"}},{"id":"pl_546862766","name":"Orlen","brand":"Orlen","lat":49.6027464,"lng":20.7155839,"address":"Nawojowska 99","city":"Nowy Sącz","region":"","services":["lpg","car_wash"],"opening_hours":"24/7","p":{"n95":6.43,"n98":6.87,"on":6.43,"lpg":2.89,"src":"estimate","at":"2026-05-06T09:49:15+00:00"}},{"id":"pl_552899223","name":"Moya","brand":"Moya","lat":50.074374,"lng":19.4238629,"address":"Wygiełzów","city":"Wygiełzów","region":"","services":[],"opening_hours":"","p":{"n95":6.23,"n98":null,"on":6.23,"lpg":2.89,"src":"estimate","at":"2026-05-06T09:49:15+00:00"}},{"id":"pl_552992635","name":"Stacja LPG","brand":"Stacja LPG","lat":50.1365709,"lng":19.4042105,"address":"Podwale 53A","city":"Chrzanów","region":"","services":["lpg"],"opening_hours":"24/7","p":{"n95":6.38,"n98":null,"on":6.38,"lpg":null,"src":"estimate","at":"2026-05-06T09:49:15+00:00"}},{"id":"pl_554973917","name":"Carrefour","brand":"Carrefour","lat":50.3086422,"lng":18.6470271,"address":"","city":"","region":"","services":[],"opening_hours":"","p":{"n95":6.38,"n98":null,"on":6.38,"lpg":null,"src":"estimate","at":"2026-05-06T09:49:15+00:00"}},{"id":"pl_559440049","name":"Orlen","brand":"Orlen","lat":52.1966995,"lng":14.7892814,"address":"","city":"","region":"","services":["lpg","adblue"],"opening_hours":"24/7","p":{"n95":6.43,"n98":6.87,"on":6.43,"lpg":2.89,"src":"estimate","at":"2026-05-06T09:49:15+00:00"}},{"id":"pl_560715183","name":"Orlen","brand":"Orlen","lat":54.1802066,"lng":22.6213837,"address":"","city":"","region":"","services":[],"opening_hours":"","p":{"n95":6.43,"n98":6.87,"on":6.43,"lpg":2.89,"src":"estimate","at":"2026-05-06T09:49:15+00:00"}},{"id":"pl_562750667","name":"Circle K","brand":"Circle K","lat":49.6873013,"lng":21.7513275,"address":"Krosno","city":"Krosno","region":"","services":[],"opening_hours":"24/7","p":{"n95":6.63,"n98":7.07,"on":6.63,"lpg":2.89,"src":"estimate","at":"2026-05-06T09:49:15+00:00"}},{"id":"pl_562750916","name":"RBDiM","brand":"RBDiM","lat":49.70073,"lng":21.74239,"address":"Krosno","city":"Krosno","region":"","services":[],"opening_hours":"","p":{"n95":6.38,"n98":null,"on":6.38,"lpg":null,"src":"estimate","at":"2026-05-06T09:49:15+00:00"}},{"id":"pl_562753780","name":"MOL","brand":"MOL","lat":49.7075831,"lng":21.7282491,"address":"Podkarpacka 38","city":"Krosno","region":"","services":[],"opening_hours":"24/7","p":{"n95":6.38,"n98":null,"on":6.38,"lpg":null,"src":"estimate","at":"2026-05-06T09:49:15+00:00"}},{"id":"pl_562767139","name":"Orlen","brand":"Orlen","lat":49.6512409,"lng":21.8211624,"address":"","city":"","region":"","services":[],"opening_hours":"24/7","p":{"n95":6.43,"n98":6.87,"on":6.43,"lpg":2.89,"src":"estimate","at":"2026-05-06T09:49:15+00:00"}},{"id":"pl_566498907","name":"Ewa","brand":"Ewa","lat":50.0199501,"lng":22.2614398,"address":"Markowa","city":"Markowa","region":"","services":[],"opening_hours":"","p":{"n95":6.38,"n98":null,"on":6.38,"lpg":null,"src":"estimate","at":"2026-05-06T09:49:15+00:00"}},{"id":"pl_566829628","name":"E. Leclerc","brand":"E. Leclerc","lat":50.0185229,"lng":22.0179793,"address":"","city":"","region":"","services":["lpg"],"opening_hours":"06:00-22:00","p":{"n95":6.38,"n98":null,"on":6.38,"lpg":null,"src":"estimate","at":"2026-05-06T09:49:15+00:00"}},{"id":"pl_566829684","name":"Orlen","brand":"Orlen","lat":50.0629763,"lng":22.0112991,"address":"","city":"","region":"","services":["lpg"],"opening_hours":"24/7","p":{"n95":6.43,"n98":6.87,"on":6.43,"lpg":2.89,"src":"estimate","at":"2026-05-06T09:49:15+00:00"}},{"id":"pl_566986898","name":"MOL","brand":"MOL","lat":49.8537766,"lng":19.916824,"address":"","city":"","region":"","services":[],"opening_hours":"","p":{"n95":6.38,"n98":null,"on":6.38,"lpg":null,"src":"estimate","at":"2026-05-06T09:49:15+00:00"}},{"id":"pl_568931159","name":"Orlen","brand":"PKN Orlen","lat":50.2875225,"lng":21.4034435,"address":"Mielec","city":"Mielec","region":"","services":[],"opening_hours":"","p":{"n95":6.43,"n98":6.87,"on":6.43,"lpg":2.89,"src":"estimate","at":"2026-05-06T09:49:15+00:00"}},{"id":"pl_568931728","name":"Slovnaft Partner","brand":"Slovnaft","lat":50.2834367,"lng":21.4286475,"address":"Stanisława Moniuszki 8","city":"Mielec","region":"","services":[],"opening_hours":"Mo-Sa 06:00-22:00, Su 08:00-16:00","p":{"n95":6.38,"n98":null,"on":6.38,"lpg":null,"src":"estimate","at":"2026-05-06T09:49:15+00:00"}},{"id":"pl_568932112","name":"Stacja LPG","brand":"Stacja LPG","lat":50.28511,"lng":21.43742,"address":"Mielec","city":"Mielec","region":"","services":[],"opening_hours":"","p":{"n95":6.38,"n98":null,"on":6.38,"lpg":null,"src":"estimate","at":"2026-05-06T09:49:15+00:00"}},{"id":"pl_568934312","name":"Leśna Polana","brand":"Leśna Polana","lat":50.2829552,"lng":21.4785072,"address":"","city":"","region":"","services":[],"opening_hours":"","p":{"n95":6.38,"n98":null,"on":6.38,"lpg":null,"src":"estimate","at":"2026-05-06T09:49:15+00:00"}},{"id":"pl_570307408","name":"Orlen","brand":"Orlen","lat":49.89693,"lng":21.3797,"address":"","city":"","region":"","services":[],"opening_hours":"24/7","p":{"n95":6.43,"n98":6.87,"on":6.43,"lpg":2.89,"src":"estimate","at":"2026-05-06T09:49:15+00:00"}},{"id":"pl_571566281","name":"Circle K","brand":"Circle K","lat":49.8763181,"lng":21.7534997,"address":"26","city":"Dobrzechów","region":"","services":[],"opening_hours":"","p":{"n95":6.63,"n98":7.07,"on":6.63,"lpg":2.89,"src":"estimate","at":"2026-05-06T09:49:15+00:00"}},{"id":"pl_571566421","name":"Orlen","brand":"Orlen","lat":49.8715959,"lng":21.7751646,"address":"Jana Sobieskiego 1","city":"Strzyżów","region":"","services":["lpg"],"opening_hours":"24/7","p":{"n95":6.43,"n98":6.87,"on":6.43,"lpg":2.89,"src":"estimate","at":"2026-05-06T09:49:15+00:00"}},{"id":"pl_571569552","name":"BP","brand":"BP","lat":50.0686415,"lng":21.6792637,"address":"Sędziszów Małopolski","city":"Sędziszów Małopolski","region":"","services":[],"opening_hours":"","p":{"n95":6.68,"n98":7.12,"on":6.68,"lpg":2.89,"src":"estimate","at":"2026-05-06T09:49:15+00:00"}},{"id":"pl_571569571","name":"Benzyna","brand":"Benzyna","lat":50.059032,"lng":21.6880076,"address":"Sędziszów Małopolski","city":"Sędziszów Małopolski","region":"","services":[],"opening_hours":"","p":{"n95":6.38,"n98":null,"on":6.38,"lpg":null,"src":"estimate","at":"2026-05-06T09:49:15+00:00"}},{"id":"pl_571569582","name":"Stacja paliw","brand":"Orlen","lat":50.0647987,"lng":21.6883337,"address":"Sędziszów Małopolski","city":"Sędziszów Małopolski","region":"","services":["lpg"],"opening_hours":"","p":{"n95":6.43,"n98":6.87,"on":6.43,"lpg":2.89,"src":"estimate","at":"2026-05-06T09:49:15+00:00"}},{"id":"pl_571652866","name":"Orlen","brand":"Orlen","lat":54.5134489,"lng":18.5335974,"address":"Śląska 45/47","city":"Gdynia","region":"","services":[],"opening_hours":"24/7","p":{"n95":6.43,"n98":6.87,"on":6.43,"lpg":2.89,"src":"estimate","at":"2026-05-06T09:49:15+00:00"}},{"id":"pl_577423448","name":"Stacja paliw","brand":"Stacja paliw","lat":50.1195049,"lng":20.518424,"address":"Ujście Solne","city":"Ujście Solne","region":"","services":[],"opening_hours":"","p":{"n95":6.38,"n98":null,"on":6.38,"lpg":null,"src":"estimate","at":"2026-05-06T09:49:15+00:00"}},{"id":"pl_577425029","name":"Stacja paliw","brand":"Orlen","lat":50.1754984,"lng":20.5822616,"address":"Przedmieście","city":"Koszyce","region":"","services":[],"opening_hours":"","p":{"n95":6.43,"n98":6.87,"on":6.43,"lpg":2.89,"src":"estimate","at":"2026-05-06T09:49:15+00:00"}},{"id":"pl_577428968","name":"LPG","brand":"LPG","lat":50.0758238,"lng":20.9221628,"address":"","city":"","region":"","services":[],"opening_hours":"","p":{"n95":6.38,"n98":null,"on":6.38,"lpg":null,"src":"estimate","at":"2026-05-06T09:49:15+00:00"}},{"id":"pl_577429423","name":"Orlen","brand":"Orlen","lat":50.0738598,"lng":21.0214301,"address":"Tarnowska 7","city":"Lisia Góra","region":"","services":[],"opening_hours":"","p":{"n95":6.43,"n98":6.87,"on":6.43,"lpg":2.89,"src":"estimate","at":"2026-05-06T09:49:15+00:00"}},{"id":"pl_577431328","name":"Stacja paliw","brand":"Stacja paliw","lat":50.14091,"lng":20.90245,"address":"","city":"","region":"","services":[],"opening_hours":"","p":{"n95":6.38,"n98":null,"on":6.38,"lpg":null,"src":"estimate","at":"2026-05-06T09:49:15+00:00"}},{"id":"pl_577436168","name":"Stacja paliw","brand":"Stacja paliw","lat":50.12245,"lng":21.00234,"address":"Brnik","city":"Brnik","region":"","services":[],"opening_hours":"","p":{"n95":6.38,"n98":null,"on":6.38,"lpg":null,"src":"estimate","at":"2026-05-06T09:49:15+00:00"}},{"id":"pl_577437477","name":"Stacja paliw","brand":"Orlen","lat":50.104398,"lng":21.0132802,"address":"Breń","city":"Breń","region":"","services":[],"opening_hours":"","p":{"n95":6.43,"n98":6.87,"on":6.43,"lpg":2.89,"src":"estimate","at":"2026-05-06T09:49:15+00:00"}},{"id":"pl_577442291","name":"Slovnaft Partner","brand":"Slovnaft","lat":50.2992776,"lng":21.0697415,"address":"","city":"","region":"","services":["lpg"],"opening_hours":"","p":{"n95":6.38,"n98":null,"on":6.38,"lpg":null,"src":"estimate","at":"2026-05-06T09:49:15+00:00"}},{"id":"pl_581895736","name":"Shell","brand":"Shell","lat":49.9055868,"lng":20.6060959,"address":"Gnojnik","city":"Gnojnik","region":"","services":["lpg","adblue"],"opening_hours":"24/7","p":{"n95":6.73,"n98":7.17,"on":6.73,"lpg":null,"src":"estimate","at":"2026-05-06T09:49:15+00:00"}},