{"stations":[{"id":"pl_29947504","name":"Petro (zamknięta od 2024r.)","brand":"Petro","lat":52.31683,"lng":15.03941,"p":{"src":"e","n95":6.32,"on":7.35}},{"id":"pl_30079118","name":"OilGaz","brand":"OilGaz","lat":52.32191,"lng":15.67997,"p":{"src":"e","n95":6.32,"on":7.35}},{"id":"pl_30093004","name":"Stacja paliw","brand":"Stacja paliw","lat":52.14456,"lng":19.47182,"p":{"src":"e","n95":6.32,"on":7.35}},{"id":"pl_32118559","name":"Circle K","brand":"Circle K","lat":52.94924,"lng":16.94647,"services":["lpg","adblue"],"opening_hours":"24/7","p":{"src":"e","n95":6.57,"on":7.6,"lpg":2.89,"n98":8.17}},{"id":"pl_36449577","name":"Orlen","brand":"Orlen","lat":51.75232,"lng":21.385,"opening_hours":"24/7","p":{"src":"e","n95":6.37,"on":7.4,"lpg":2.89,"n98":7.97}},{"id":"pl_82780467","name":"Orlen","brand":"Orlen","lat":53.84386,"lng":21.22162,"p":{"src":"e","n95":6.37,"on":7.4,"lpg":2.89,"n98":7.97}},{"id":"pl_82780563","name":"BP Kromerowo","brand":"BP","lat":53.82826,"lng":20.82287,"services":["lpg"],"p":{"src":"e","n95":6.62,"on":7.65,"lpg":2.89,"n98":8.22}},{"id":"pl_82782336","name":"Orlen","brand":"Orlen","lat":53.20873,"lng":19.17136,"address":"92","city":"Wrocki","services":["lpg","adblue"],"opening_hours":"24/7","p":{"src":"e","n95":6.37,"on":7.4,"lpg":2.89,"n98":7.97}},{"id":"pl_82782366","name":"Amic","brand":"Amic","lat":53.1875,"lng":19.03673,"address":"22","city":"Lipnica","services":["lpg"],"p":{"src":"e","n95":6.22,"on":7.25,"lpg":2.89}},{"id":"pl_83853766","name":"Watis","brand":"Watis","lat":52.99465,"lng":18.46645,"services":["lpg"],"opening_hours":"24/7","p":{"src":"e","n95":6.32,"on":7.35}},{"id":"pl_95003080","name":"Orlen","brand":"Orlen","lat":52.24442,"lng":20.96723,"opening_hours":"24/7","p":{"src":"e","n95":6.37,"on":7.4,"lpg":2.89,"n98":7.97}},{"id":"pl_126091163","name":"Stacja paliw","brand":"Stacja paliw","lat":50.87939,"lng":14.82515,"p":{"src":"e","n95":6.32,"on":7.35}},{"id":"pl_142131640","name":"BP","brand":"BP","lat":53.76407,"lng":20.49469,"address":"Wincentego Pstrowskiego 20","city":"Olsztyn","services":["lpg"],"p":{"src":"e","n95":6.62,"on":7.65,"lpg":2.89,"n98":8.22}},{"id":"pl_142132191","name":"Ochman","brand":"Ochman","lat":53.76392,"lng":20.4648,"p":{"src":"e","n95":6.32,"on":7.35}},{"id":"pl_142413031","name":"Shell","brand":"Shell","lat":52.38629,"lng":16.91207,"address":"Romualda Traugutta 1/3","city":"Poznań","services":["lpg","adblue"],"opening_hours":"24/7","p":{"src":"e","n95":6.67,"on":7.7,"n98":8.27}},{"id":"pl_152740338","name":"Auchan","brand":"Auchan","lat":52.24146,"lng":20.92754,"opening_hours":"24/7","p":{"src":"e","n95":6.07,"on":7.1}},{"id":"pl_158796563","name":"MOL","brand":"MOL","lat":52.54382,"lng":17.60276,"address":"Franciszka Żwirki i Stanisława Wigury 32","city":"Gniezno","p":{"src":"e","n95":6.32,"on":7.35}},{"id":"pl_165131630","name":"Shell","brand":"Shell","lat":51.13827,"lng":17.08208,"address":"aleja Aleksandra Brücknera 53","city":"Wrocław","services":["lpg","adblue"],"opening_hours":"24/7","p":{"src":"e","n95":6.67,"on":7.7,"n98":8.27}},{"id":"pl_178851632","name":"BP","brand":"BP","lat":51.09405,"lng":16.97956,"address":"Grabiszyńska 266","services":["lpg"],"opening_hours":"24/7","p":{"src":"e","n95":6.62,"on":7.65,"lpg":2.89,"n98":8.22}},{"id":"pl_190073595","name":"Shell","brand":"Shell","lat":51.17665,"lng":15.03211,"opening_hours":"24/7","p":{"src":"e","n95":6.67,"on":7.7,"n98":8.27}},{"id":"pl_192475635","name":"Shell","brand":"Shell","lat":52.41059,"lng":16.8683,"address":"Bułgarska 119","city":"Poznań","services":["lpg","adblue"],"opening_hours":"24/7","p":{"src":"e","n95":6.67,"on":7.7,"n98":8.27}},{"id":"pl_197997892","name":"MOL","brand":"MOL","lat":52.39372,"lng":16.88566,"address":"Józefa Chociszewskiego 49","city":"Poznań","services":["lpg"],"opening_hours":"24/7","p":{"src":"e","n95":6.32,"on":7.35}},{"id":"pl_207628405","name":"Orlen","brand":"Orlen","lat":52.23398,"lng":20.98495,"address":"Grzybowska 74","opening_hours":"24/7","p":{"src":"e","n95":6.37,"on":7.4,"lpg":2.89,"n98":7.97}},{"id":"pl_211421239","name":"Orlen","brand":"Orlen","lat":52.08814,"lng":17.39398,"address":"Poznańska 47","city":"Nowe Miasto nad Wartą","services":["lpg"],"opening_hours":"24/7","p":{"src":"e","n95":6.37,"on":7.4,"lpg":2.89,"n98":7.97}},{"id":"pl_236101751","name":"Orlen","brand":"Orlen","lat":50.08966,"lng":19.8931,"opening_hours":"Mo-Su,PH 06:00-22:00","p":{"src":"e","n95":6.37,"on":7.4,"lpg":2.89,"n98":7.97}},{"id":"pl_238534832","name":"BP Cybina","brand":"BP","lat":52.40352,"lng":17.05413,"services":["lpg","adblue"],"opening_hours":"24/7","p":{"src":"e","n95":6.62,"on":7.65,"lpg":2.89,"n98":8.22}},{"id":"pl_243628594","name":"Pieprzyk","brand":"Moc Jakość Zysk","lat":51.09562,"lng":16.96232,"services":["lpg"],"opening_hours":"24/7","p":{"src":"e","n95":6.32,"on":7.35}},{"id":"pl_243691232","name":"Orlen","brand":"Orlen","lat":49.86581,"lng":19.91139,"address":"Jawornik","city":"Jawornik","services":["lpg"],"p":{"src":"e","n95":6.37,"on":7.4,"lpg":2.89,"n98":7.97}},{"id":"pl_246814960","name":"Orlen","brand":"Orlen","lat":52.148,"lng":21.05957,"opening_hours":"24/7","p":{"src":"e","n95":6.37,"on":7.4,"lpg":2.89,"n98":7.97}},{"id":"pl_247236427","name":"Orlen","brand":"Orlen","lat":52.81561,"lng":17.21853,"services":["lpg"],"opening_hours":"24/7","p":{"src":"e","n95":6.37,"on":7.4,"lpg":2.89,"n98":7.97}},{"id":"pl_247286406","name":"BP","brand":"BP","lat":52.24283,"lng":21.09823,"address":"Grochowska 149/151","city":"Warszawa","services":["lpg"],"opening_hours":"24/7","p":{"src":"r","n95":6.35,"on":7.65,"lpg":2.89,"n98":8.22,"at":"2026-05-10T09:22"}},{"id":"pl_247286407","name":"Orlen","brand":"Orlen","lat":52.24424,"lng":21.09618,"address":"Nasielska 1","opening_hours":"Mo-Sa 06:00-22:00; Su 07:00-17:00","p":{"src":"e","n95":6.37,"on":7.4,"lpg":2.89,"n98":7.97}},{"id":"pl_251464303","name":"U Emila","brand":"U Emila","lat":50.97911,"lng":16.36953,"p":{"src":"e","n95":6.32,"on":7.35}},{"id":"pl_251693230","name":"Orlen","brand":"Orlen","lat":50.05512,"lng":19.92519,"opening_hours":"24/7","p":{"src":"e","n95":6.37,"on":7.4,"lpg":2.89,"n98":7.97}},{"id":"pl_253041827","name":"Orlen","brand":"Orlen","lat":52.16587,"lng":21.0159,"address":"Aleja Wyścigowa 2","city":"Warszawa","opening_hours":"24/7","p":{"src":"r","n95":6.35,"on":7.4,"lpg":2.89,"n98":7.97,"at":"2026-05-10T09:22"}},{"id":"pl_254021620","name":"Orlen","brand":"Orlen","lat":52.17659,"lng":21.04515,"p":{"src":"e","n95":6.37,"on":7.4,"lpg":2.89,"n98":7.97}},{"id":"pl_254025081","name":"Circle K","brand":"Circle K","lat":52.23734,"lng":21.11902,"address":"Grochowska 19","services":["lpg"],"opening_hours":"24/7","p":{"src":"e","n95":6.57,"on":7.6,"lpg":2.89,"n98":8.17}},{"id":"pl_254451731","name":"Orlen","brand":"Orlen","lat":52.2165,"lng":20.99858,"opening_hours":"24/7","p":{"src":"e","n95":6.37,"on":7.4,"lpg":2.89,"n98":7.97}},{"id":"pl_254762158","name":"Orlen","brand":"Orlen","lat":53.03246,"lng":16.46999,"services":["lpg","adblue"],"opening_hours":"24/7","p":{"src":"e","n95":6.37,"on":7.4,"lpg":2.89,"n98":7.97}},{"id":"pl_255205028","name":"MOL","brand":"MOL","lat":52.4428,"lng":16.94414,"address":"Naramowicka 131","city":"Poznań","services":["lpg","car_wash"],"p":{"src":"e","n95":6.32,"on":7.35}},{"id":"pl_255239721","name":"Orlen","brand":"Orlen","lat":54.17696,"lng":16.19689,"address":"Gnieźnieńska 34","city":"Koszalin","services":["lpg","car_wash"],"opening_hours":"24/7","p":{"src":"e","n95":6.37,"on":7.4,"lpg":2.89,"n98":7.97}},{"id":"pl_255239739","name":"MZK","brand":"MZK","lat":54.18072,"lng":16.1942,"opening_hours":"Mo-Fr 06:00-18:00; Sa,Su 10:00-18:00","p":{"src":"e","n95":6.32,"on":7.35}},{"id":"pl_255594959","name":"Orlen","brand":"Orlen","lat":52.23657,"lng":21.08749,"opening_hours":"24/7","p":{"src":"e","n95":6.37,"on":7.4,"lpg":2.89,"n98":7.97}},{"id":"pl_256257831","name":"Shell","brand":"Shell","lat":52.23346,"lng":21.13011,"opening_hours":"PH,Mo-Su 06:00-22:00","p":{"src":"e","n95":6.67,"on":7.7,"n98":8.27}},{"id":"pl_258477142","name":"AB","brand":"AB","lat":50.87518,"lng":14.82704,"address":"Aleja Trzech Państw 2","city":"Kopaczów","p":{"src":"e","n95":6.32,"on":7.35}},{"id":"pl_258623659","name":"Orlen","brand":"Orlen","lat":51.15733,"lng":15.02821,"address":"Słowiańska 1","city":"Zgorzelec","services":["lpg","adblue"],"opening_hours":"24/7","p":{"src":"e","n95":6.37,"on":7.4,"lpg":2.89,"n98":7.97}},{"id":"pl_258623712","name":"Areca","brand":"Areca","lat":51.1605,"lng":15.02863,"services":["lpg"],"p":{"src":"e","n95":6.32,"on":7.35}},{"id":"pl_260004489","name":"Circle K","brand":"Circle K","lat":52.13632,"lng":20.89577,"p":{"src":"e","n95":6.57,"on":7.6,"lpg":2.89,"n98":8.17}},{"id":"pl_261666236","name":"Circle K Express","brand":"Circle K","lat":52.14244,"lng":21.02378,"address":"Puławska 427","city":"Warszawa","services":["lpg"],"opening_hours":"24/7","p":{"src":"r","n95":6.34,"on":7.6,"lpg":2.89,"n98":8.17,"at":"2026-05-10T09:22"}},{"id":"pl_262409334","name":"Amic","brand":"Amic Energy","lat":52.3751,"lng":16.86916,"services":["lpg"],"opening_hours":"24/7","p":{"src":"e","n95":6.22,"on":7.25,"lpg":2.89}},{"id":"pl_262639796","name":"BP Ikar","brand":"BP","lat":50.29879,"lng":18.68906,"address":"Generała Jarosława Dąbrowskiego 18","city":"Gliwice","services":["lpg"],"opening_hours":"PH,Mo-Su 12:00","p":{"src":"e","n95":6.62,"on":7.65,"lpg":2.89,"n98":8.22}},{"id":"pl_264266441","name":"Orlen","brand":"Orlen","lat":52.38255,"lng":16.88281,"address":"Zgoda 19","city":"Poznań","services":["lpg"],"opening_hours":"24/7","p":{"src":"e","n95":6.37,"on":7.4,"lpg":2.89,"n98":7.97}},{"id":"pl_264272851","name":"BP","brand":"BP","lat":52.43378,"lng":16.80105,"services":["lpg","adblue"],"opening_hours":"24/7","p":{"src":"e","n95":6.62,"on":7.65,"lpg":2.89,"n98":8.22}},{"id":"pl_265629974","name":"Orlen","brand":"Orlen","lat":52.42651,"lng":16.91815,"services":["lpg"],"opening_hours":"24/7","p":{"src":"e","n95":6.37,"on":7.4,"lpg":2.89,"n98":7.97}},{"id":"pl_266416655","name":"HIL-GAZ","brand":"HIL-GAZ","lat":53.23315,"lng":14.48822,"address":"Czechosłowacka 2","opening_hours":"05:00-23:00","p":{"src":"e","n95":6.32,"on":7.35}},{"id":"pl_266456843","name":"Lotos","brand":"Lotos","lat":51.51663,"lng":17.27839,"services":["lpg"],"p":{"src":"e","n95":6.37,"on":7.4,"lpg":2.89}},{"id":"pl_266561072","name":"Orlen","brand":"Orlen","lat":51.2069,"lng":16.18162,"services":["lpg"],"opening_hours":"24/7","p":{"src":"e","n95":6.37,"on":7.4,"lpg":2.89,"n98":7.97}},{"id":"pl_266858339","name":"BP Orbita","brand":"BP","lat":51.20942,"lng":16.18608,"services":["lpg"],"opening_hours":"24/7","p":{"src":"e","n95":6.62,"on":7.65,"lpg":2.89,"n98":8.22}},{"id":"pl_267240626","name":"BP Lech","brand":"BP","lat":53.38507,"lng":14.65181,"services":["lpg"],"p":{"src":"e","n95":6.62,"on":7.65,"lpg":2.89,"n98":8.22}},{"id":"pl_267241999","name":"Orlen","brand":"Orlen","lat":53.42499,"lng":14.54561,"p":{"src":"e","n95":6.37,"on":7.4,"lpg":2.89,"n98":7.97}},{"id":"pl_267242075","name":"Orlen","brand":"Orlen","lat":53.43688,"lng":14.53235,"p":{"src":"e","n95":6.37,"on":7.4,"lpg":2.89,"n98":7.97}},{"id":"pl_267248379","name":"Shell","brand":"Shell","lat":53.4454,"lng":14.52252,"services":["lpg"],"opening_hours":"24/7","p":{"src":"e","n95":6.67,"on":7.7,"n98":8.27}},{"id":"pl_267249076","name":"Orlen","brand":"Orlen","lat":53.45418,"lng":14.53731,"services":["lpg"],"opening_hours":"24/7","p":{"src":"e","n95":6.37,"on":7.4,"lpg":2.89,"n98":7.97}},{"id":"pl_267458634","name":"Orlen","brand":"Orlen","lat":52.03016,"lng":23.11841,"opening_hours":"24/7","p":{"src":"e","n95":6.37,"on":7.4,"lpg":2.89,"n98":7.97}},{"id":"pl_269327980","name":"Orlen","brand":"Orlen","lat":53.37186,"lng":14.60591,"address":"Granitowa","city":"Szczecin","services":["lpg"],"opening_hours":"24/7","p":{"src":"e","n95":6.37,"on":7.4,"lpg":2.89,"n98":7.97}},{"id":"pl_269654354","name":"Shell","brand":"Shell","lat":50.08947,"lng":19.90249,"opening_hours":"24/7","p":{"src":"e","n95":6.67,"on":7.7,"n98":8.27}},{"id":"pl_270196785","name":"Circle K","brand":"Circle K","lat":52.15211,"lng":21.01691,"address":"Puławska 274","city":"Warszawa","services":["lpg"],"opening_hours":"24/7","p":{"src":"e","n95":6.57,"on":7.6,"lpg":2.89,"n98":8.17}},{"id":"pl_271230252","name":"Orlen","brand":"Orlen","lat":52.05122,"lng":23.121,"p":{"src":"e","n95":6.37,"on":7.4,"lpg":2.89,"n98":7.97}},{"id":"pl_274282013","name":"Orlen","brand":"Orlen","lat":52.9788,"lng":22.23051,"services":["lpg"],"opening_hours":"24/7","p":{"src":"e","n95":6.37,"on":7.4,"lpg":2.89,"n98":7.97}},{"id":"pl_275068760","name":"Stacja paliw","brand":"Stacja paliw","lat":52.28041,"lng":21.11348,"services":["lpg"],"p":{"src":"e","n95":6.32,"on":7.35}},{"id":"pl_275565845","name":"Orlen","brand":"Orlen","lat":51.78608,"lng":14.93065,"services":["lpg"],"opening_hours":"24/7","p":{"src":"e","n95":6.37,"on":7.4,"lpg":2.89,"n98":7.97}},{"id":"pl_275620939","name":"Dan-Pol","brand":"Dan-Pol","lat":51.78535,"lng":14.97008,"p":{"src":"e","n95":6.32,"on":7.35}},{"id":"pl_275621688","name":"Pieprzyk","brand":"Pieprzyk","lat":51.78826,"lng":14.95146,"p":{"src":"e","n95":6.32,"on":7.35}},{"id":"pl_276522640","name":"Adjor","brand":"Adjor","lat":52.08935,"lng":15.6509,"p":{"src":"e","n95":6.32,"on":7.35}},{"id":"pl_277632185","name":"StarOil","brand":"StarOil","lat":52.0999,"lng":19.91919,"address":"Tuszewska 41","p":{"src":"e","n95":6.32,"on":7.35}},{"id":"pl_277718808","name":"BP Krakowiak","brand":"BP","lat":50.08704,"lng":19.98509,"services":["lpg"],"opening_hours":"24/7","p":{"src":"e","n95":6.62,"on":7.65,"lpg":2.89,"n98":8.22}},{"id":"pl_278965782","name":"Orlen","brand":"Orlen","lat":52.10242,"lng":19.97345,"address":"Bolimowska 75","city":"Łowicz","opening_hours":"24/7","p":{"src":"e","n95":6.37,"on":7.4,"lpg":2.89,"n98":7.97}},{"id":"pl_278987557","name":"Circle K","brand":"Circle K","lat":52.24831,"lng":20.91237,"address":"Powstańców Śląskich 90","city":"Warszawa","services":["lpg"],"opening_hours":"24/7","p":{"src":"e","n95":6.57,"on":7.6,"lpg":2.89,"n98":8.17}},{"id":"pl_279142139","name":"AutoGAZ","brand":"AutoGAZ","lat":52.23166,"lng":21.09555,"p":{"src":"e","n95":6.32,"on":7.35}},{"id":"pl_279857505","name":"Atip","brand":"Atip","lat":52.25155,"lng":21.29312,"address":"Okuniewska 2a","city":"Sulejówek","p":{"src":"e","n95":6.32,"on":7.35}},{"id":"pl_282393656","name":"Orlen","brand":"Orlen","lat":52.14115,"lng":21.19047,"opening_hours":"24/7","p":{"src":"e","n95":6.37,"on":7.4,"lpg":2.89,"n98":7.97}},{"id":"pl_282740611","name":"Orlen","brand":"Orlen","lat":51.97182,"lng":20.14837,"address":"Widok","city":"Skierniewice","services":["lpg"],"opening_hours":"24/7","p":{"src":"e","n95":6.37,"on":7.4,"lpg":2.89,"n98":7.97}},{"id":"pl_282740630","name":"Shell","brand":"Shell","lat":51.97178,"lng":20.14728,"services":["lpg"],"opening_hours":"24/7","p":{"src":"e","n95":6.67,"on":7.7,"n98":8.27}},{"id":"pl_282926298","name":"Autogaz","brand":"Autogaz","lat":52.7979,"lng":19.86095,"services":["lpg"],"p":{"src":"e","n95":6.32,"on":7.35}},{"id":"pl_283024662","name":"LPG","brand":"LPG","lat":52.09991,"lng":19.9191,"p":{"src":"e","n95":6.32,"on":7.35}},{"id":"pl_283255265","name":"Moya","brand":"Moya","lat":53.13261,"lng":19.83747,"p":{"src":"e","n95":6.17,"on":7.2,"lpg":2.89}},{"id":"pl_283352307","name":"Gaspol","brand":"Gaspol","lat":53.25504,"lng":19.89366,"p":{"src":"e","n95":6.32,"on":7.35}},{"id":"pl_283847457","name":"Gazobenz","brand":"Gazobenz","lat":53.06867,"lng":19.89867,"p":{"src":"e","n95":6.32,"on":7.35}},{"id":"pl_283934700","name":"Stacja paliw","brand":"Stacja paliw","lat":52.87992,"lng":19.87104,"p":{"src":"e","n95":6.32,"on":7.35}},{"id":"pl_283935019","name":"Shell","brand":"Shell","lat":52.78173,"lng":19.89973,"services":["lpg"],"p":{"src":"e","n95":6.67,"on":7.7,"n98":8.27}},{"id":"pl_285943909","name":"Stacja paliw","brand":"Stacja paliw","lat":52.09498,"lng":19.93241,"p":{"src":"e","n95":6.32,"on":7.35}},{"id":"pl_285946354","name":"Orlen","brand":"Orlen","lat":52.10415,"lng":19.95301,"p":{"src":"e","n95":6.37,"on":7.4,"lpg":2.89,"n98":7.97}},{"id":"pl_288473772","name":"Orlen","brand":"Orlen","lat":53.39732,"lng":14.6753,"p":{"src":"e","n95":6.37,"on":7.4,"lpg":2.89,"n98":7.97}},{"id":"pl_288811960","name":"BP","brand":"BP","lat":51.27338,"lng":15.78653,"address":"Szwedzka 1B","city":"Okmiany","services":["lpg","adblue"],"opening_hours":"24/7","p":{"src":"e","n95":6.62,"on":7.65,"lpg":2.89,"n98":8.22}},{"id":"pl_292144518","name":"Orlen","brand":"Orlen","lat":52.22587,"lng":21.14888,"services":["lpg"],"opening_hours":"24/7","p":{"src":"e","n95":6.37,"on":7.4,"lpg":2.89,"n98":7.97}},{"id":"pl_292350920","name":"Orlen","brand":"Orlen","lat":51.37061,"lng":22.6335,"address":"Przemysłowa","city":"Niemce","opening_hours":"24/7","p":{"src":"e","n95":6.37,"on":7.4,"lpg":2.89,"n98":7.97}},{"id":"pl_293586364","name":"Moya","brand":"Moya","lat":53.40769,"lng":14.51751,"opening_hours":"24/7","p":{"src":"e","n95":6.17,"on":7.2,"lpg":2.89}},{"id":"pl_294680313","name":"Orlen","brand":"Orlen","lat":50.65208,"lng":17.90933,"opening_hours":"24/7","p":{"src":"e","n95":6.37,"on":7.4,"lpg":2.89,"n98":7.97}},{"id":"pl_295340204","name":"BP Szpetal","brand":"BP","lat":52.68319,"lng":19.09987,"services":["lpg"],"opening_hours":"24/7","p":{"src":"e","n95":6.62,"on":7.65,"lpg":2.89,"n98":8.22}},{"id":"pl_295552954","name":"MOL","brand":"MOL","lat":52.73647,"lng":23.58418,"p":{"src":"e","n95":6.32,"on":7.35}},{"id":"pl_295887875","name":"MOL","brand":"MOL","lat":53.45393,"lng":14.56059,"opening_hours":"24/7","p":{"src":"e","n95":6.32,"on":7.35}},{"id":"pl_296384840","name":"Orlen","brand":"Orlen","lat":50.13775,"lng":20.38652,"p":{"src":"e","n95":6.37,"on":7.4,"lpg":2.89,"n98":7.97}},{"id":"pl_297142804","name":"MZK","brand":"MZK","lat":51.98116,"lng":20.16432,"p":{"src":"e","n95":6.32,"on":7.35}},{"id":"pl_297143178","name":"Raws","brand":"Raws","lat":51.98507,"lng":20.21257,"p":{"src":"e","n95":6.32,"on":7.35}},{"id":"pl_298888894","name":"Orlen","brand":"Orlen","lat":52.42999,"lng":16.84794,"services":["lpg","adblue"],"opening_hours":"24/7","p":{"src":"e","n95":6.37,"on":7.4,"lpg":2.89,"n98":7.97}},{"id":"pl_299663493","name":"Bobryk","brand":"Bobryk","lat":53.37147,"lng":14.47221,"p":{"src":"e","n95":6.32,"on":7.35}},{"id":"pl_301526370","name":"123","brand":"123","lat":50.78888,"lng":19.10846,"p":{"src":"e","n95":6.32,"on":7.35}},{"id":"pl_301639000","name":"Amic Energy","brand":"Amic","lat":51.08346,"lng":17.04789,"opening_hours":"24/7","p":{"src":"e","n95":6.22,"on":7.25,"lpg":2.89}},{"id":"pl_302235666","name":"BP","brand":"BP","lat":51.12706,"lng":16.98091,"address":"Legnicka 67","city":"Wrocław","services":["lpg"],"opening_hours":"24/7","p":{"src":"e","n95":6.62,"on":7.65,"lpg":2.89,"n98":8.22}},{"id":"pl_302387512","name":"Wasbruk","brand":"Wasbruk","lat":52.22825,"lng":21.13938,"address":"Białoborska 4","services":["lpg"],"opening_hours":"24/7","p":{"src":"e","n95":6.32,"on":7.35}},{"id":"pl_303024212","name":"Lust","brand":"Lust","lat":51.29477,"lng":21.24671,"services":["lpg"],"p":{"src":"e","n95":6.32,"on":7.35}},{"id":"pl_304634347","name":"BP","brand":"BP","lat":51.08214,"lng":17.05078,"address":"Bardzka 26","city":"Wrocław","opening_hours":"24/7","p":{"src":"e","n95":6.62,"on":7.65,"lpg":2.89,"n98":8.22}},{"id":"pl_304858744","name":"Agropal","brand":"Agropal","lat":51.19418,"lng":21.99794,"services":["lpg"],"p":{"src":"e","n95":6.32,"on":7.35}},{"id":"pl_304858784","name":"Darex","brand":"Darex","lat":51.02208,"lng":22.11346,"p":{"src":"e","n95":6.32,"on":7.35}},{"id":"pl_306010249","name":"Shell","brand":"Shell","lat":53.45968,"lng":14.54359,"opening_hours":"24/7","p":{"src":"e","n95":6.67,"on":7.7,"n98":8.27}},{"id":"pl_307524468","name":"AUTO GAZ","brand":"AUTO GAZ","lat":52.24239,"lng":21.09976,"p":{"src":"e","n95":6.32,"on":7.35}},{"id":"pl_307947031","name":"Circle K","brand":"Circle K","lat":52.37823,"lng":16.88608,"services":["lpg"],"opening_hours":"24/7","p":{"src":"e","n95":6.57,"on":7.6,"lpg":2.89,"n98":8.17}},{"id":"pl_308996364","name":"Auchan","brand":"Auchan","lat":52.43847,"lng":16.76273,"services":["lpg"],"opening_hours":"Mo-Sa 08:30-22:00; Su 09:00-21:00","p":{"src":"e","n95":6.07,"on":7.1}},{"id":"pl_310284393","name":"Shell","brand":"Shell","lat":52.9985,"lng":18.60491,"p":{"src":"e","n95":6.67,"on":7.7,"n98":8.27}},{"id":"pl_310456995","name":"Centrum","brand":"Centrum","lat":51.04617,"lng":16.96481,"services":["lpg"],"p":{"src":"e","n95":6.32,"on":7.35}},{"id":"pl_311573236","name":"Stacja paliw","brand":"Stacja paliw","lat":53.40365,"lng":23.50516,"p":{"src":"e","n95":6.32,"on":7.35}},{"id":"pl_311778212","name":"Orlen","brand":"Orlen","lat":53.92726,"lng":18.69028,"address":"Plac Wolności 7","city":"Pelplin","p":{"src":"e","n95":6.37,"on":7.4,"lpg":2.89,"n98":7.97}},{"id":"pl_311970476","name":"Stacjia Paliw Auto-Darex","brand":"Stacjia Paliw Auto-Darex","lat":53.93964,"lng":18.56602,"p":{"src":"e","n95":6.32,"on":7.35}},{"id":"pl_313418888","name":"Orlen","brand":"PKN Orlen","lat":53.46529,"lng":14.57911,"services":["lpg"],"p":{"src":"e","n95":6.37,"on":7.4,"lpg":2.89,"n98":7.97}},{"id":"pl_313425082","name":"BP Meteor","brand":"BP","lat":50.43096,"lng":18.86571,"services":["lpg"],"p":{"src":"e","n95":6.62,"on":7.65,"lpg":2.89,"n98":8.22}},{"id":"pl_313491871","name":"BP","brand":"BP","lat":52.37811,"lng":16.87438,"address":"Głogowska 232/234","city":"Poznań","services":["lpg","adblue"],"opening_hours":"24/7","p":{"src":"e","n95":6.62,"on":7.65,"lpg":2.89,"n98":8.22}},{"id":"pl_314451504","name":"PEKAES","brand":"PEKAES","lat":53.35303,"lng":14.74528,"p":{"src":"e","n95":6.32,"on":7.35}},{"id":"pl_316997698","name":"BP","brand":"BP","lat":52.43115,"lng":16.94659,"address":"Serbska 24","city":"Poznań","services":["lpg"],"opening_hours":"24/7","p":{"src":"e","n95":6.62,"on":7.65,"lpg":2.89,"n98":8.22}},{"id":"pl_319205268","name":"Shell","brand":"Shell","lat":54.54438,"lng":18.46514,"address":"Chylońska 110A","city":"Gdynia","p":{"src":"e","n95":6.67,"on":7.7,"n98":8.27}},{"id":"pl_321726188","name":"Grosar","brand":"Grosar","lat":49.99272,"lng":21.26329,"p":{"src":"e","n95":6.32,"on":7.35}},{"id":"pl_322526361","name":"Orlen","brand":"Orlen","lat":53.10239,"lng":23.13912,"address":"Kawaleryjska 27","city":"Białystok","services":["lpg","car_wash"],"opening_hours":"24/7","p":{"src":"e","n95":6.37,"on":7.4,"lpg":2.89,"n98":7.97}},{"id":"pl_322691916","name":"AMIC Energy","brand":"AMIC Energy","lat":53.23522,"lng":14.7873,"services":["lpg"],"opening_hours":"24/7","p":{"src":"e","n95":6.22,"on":7.25,"lpg":2.89}},{"id":"pl_322691922","name":"Orlen","brand":"Orlen","lat":53.15231,"lng":14.88236,"services":["lpg"],"opening_hours":"24/7","p":{"src":"e","n95":6.37,"on":7.4,"lpg":2.89,"n98":7.97}},{"id":"pl_322797164","name":"BP Jantar","brand":"BP","lat":52.19354,"lng":20.92393,"services":["lpg"],"opening_hours":"PH,Mo-Su 00:00-24:00","p":{"src":"e","n95":6.62,"on":7.65,"lpg":2.89,"n98":8.22}},{"id":"pl_322920602","name":"Orlen","brand":"Orlen","lat":50.25452,"lng":19.0471,"services":["lpg"],"opening_hours":"24/7","p":{"src":"e","n95":6.37,"on":7.4,"lpg":2.89,"n98":7.97}},{"id":"pl_325090736","name":"Orlen","brand":"Orlen","lat":50.17846,"lng":18.88916,"p":{"src":"e","n95":6.37,"on":7.4,"lpg":2.89,"n98":7.97}},{"id":"pl_325247451","name":"BP Bielik","brand":"BP","lat":52.37672,"lng":16.95775,"services":["lpg","adblue"],"opening_hours":"24/7","p":{"src":"e","n95":6.62,"on":7.65,"lpg":2.89,"n98":8.22}},{"id":"pl_327843809","name":"Ki","brand":"Ki","lat":53.53306,"lng":15.8046,"p":{"src":"e","n95":6.32,"on":7.35}},{"id":"pl_327854771","name":"Orlen","brand":"Orlen","lat":53.52681,"lng":15.79571,"p":{"src":"e","n95":6.37,"on":7.4,"lpg":2.89,"n98":7.97}},{"id":"pl_327858238","name":"Stacja paliw","brand":"Stacja paliw","lat":53.52424,"lng":15.79146,"p":{"src":"e","n95":6.32,"on":7.35}},{"id":"pl_328132272","name":"Agromarket","brand":"Agromarket","lat":53.51369,"lng":15.6408,"p":{"src":"e","n95":6.32,"on":7.35}},{"id":"pl_330097029","name":"Shell","brand":"Shell","lat":50.47955,"lng":17.97223,"p":{"src":"e","n95":6.67,"on":7.7,"n98":8.27}},{"id":"pl_332176709","name":"Moya","brand":"Moya","lat":50.29929,"lng":18.7969,"opening_hours":"24/7","p":{"src":"e","n95":6.17,"on":7.2,"lpg":2.89}},{"id":"pl_332578984","name":"Orlen","brand":"Orlen","lat":52.40064,"lng":16.92159,"address":"Topolowa 11","city":"Poznań","opening_hours":"24/7","p":{"src":"e","n95":6.37,"on":7.4,"lpg":2.89,"n98":7.97}},{"id":"pl_333200463","name":"Shell","brand":"Shell","lat":53.34259,"lng":14.99028,"p":{"src":"e","n95":6.67,"on":7.7,"n98":8.27}},{"id":"pl_333716219","name":"Orlen","brand":"Orlen","lat":52.27888,"lng":16.68777,"services":["lpg","adblue"],"opening_hours":"24/7","p":{"src":"e","n95":6.37,"on":7.4,"lpg":2.89,"n98":7.97}},{"id":"pl_333742889","name":"Circle K","brand":"Circle K","lat":51.06235,"lng":17.00088,"opening_hours":"PH,Mo-Su 00:00-24:00","p":{"src":"e","n95":6.57,"on":7.6,"lpg":2.89,"n98":8.17}},{"id":"pl_333743285","name":"Orlen","brand":"Orlen","lat":51.08342,"lng":17.0251,"address":"Ślężna 88A","city":"Wrocław","services":["lpg"],"opening_hours":"24/7","p":{"src":"e","n95":6.37,"on":7.4,"lpg":2.89,"n98":7.97}},{"id":"pl_338911738","name":"BP","brand":"BP","lat":52.39661,"lng":16.86847,"services":["lpg"],"opening_hours":"24/7","p":{"src":"e","n95":6.62,"on":7.65,"lpg":2.89,"n98":8.22}},{"id":"pl_339223210","name":"Orlen","brand":"Orlen","lat":52.09213,"lng":21.11956,"address":"Warszawska 4","city":"Konstancin-Jeziorna","p":{"src":"e","n95":6.37,"on":7.4,"lpg":2.89,"n98":7.97}},{"id":"pl_341776498","name":"Stacja paliw","brand":"Stacja paliw","lat":50.30928,"lng":18.75545,"p":{"src":"e","n95":6.32,"on":7.35}},{"id":"pl_342267642","name":"Circle K Express","brand":"Circle K","lat":50.09484,"lng":19.95127,"address":"Siewna 28","city":"Kraków","services":["lpg"],"opening_hours":"Mo-Sa 06:30-22:00; Su 08:00-21:00","p":{"src":"e","n95":6.57,"on":7.6,"lpg":2.89,"n98":8.17}},{"id":"pl_344106486","name":"MOL","brand":"MOL","lat":50.82783,"lng":16.30529,"services":["lpg"],"opening_hours":"Mo-Su,PH 00:00-24:00","p":{"src":"e","n95":6.32,"on":7.35}},{"id":"pl_344985073","name":"Circle K","brand":"Circle K","lat":50.19389,"lng":18.98351,"address":"Szarych Szeregów 3","city":"Katowice","p":{"src":"e","n95":6.57,"on":7.6,"lpg":2.89,"n98":8.17}},{"id":"pl_349189427","name":"LPG","brand":"LPG","lat":52.23271,"lng":21.54145,"address":"Stanisławowska 26","city":"Brzóze","services":["lpg"],"opening_hours":"04:00-24:00","p":{"src":"e","n95":6.32,"on":7.35}},{"id":"pl_349189443","name":"BP Warmiaki","brand":"BP","lat":52.4637,"lng":21.65405,"address":"Warmiaki","city":"Warmiaki","services":["lpg"],"p":{"src":"e","n95":6.62,"on":7.65,"lpg":2.89,"n98":8.22}},{"id":"pl_353225918","name":"Circle K","brand":"Circle K","lat":52.38638,"lng":16.96112,"services":["lpg"],"opening_hours":"24/7","p":{"src":"e","n95":6.57,"on":7.6,"lpg":2.89,"n98":8.17}},{"id":"pl_353499221","name":"Orlen","brand":"Orlen","lat":52.4101,"lng":17.00797,"services":["lpg"],"opening_hours":"24/7","p":{"src":"e","n95":6.37,"on":7.4,"lpg":2.89,"n98":7.97}},{"id":"pl_353740430","name":"Orlen nr 665","brand":"Orlen","lat":52.25293,"lng":16.85414,"address":"Piotra Mocka 3","city":"Mosina","services":["lpg"],"opening_hours":"24/7","p":{"src":"e","n95":6.37,"on":7.4,"lpg":2.89,"n98":7.97}},{"id":"pl_357528180","name":"Baltica","brand":"Baltica","lat":52.38011,"lng":20.63071,"opening_hours":"24/7","p":{"src":"e","n95":6.32,"on":7.35}},{"id":"pl_358299878","name":"MOL","brand":"MOL","lat":52.14446,"lng":20.85186,"p":{"src":"e","n95":6.32,"on":7.35}},{"id":"pl_359467227","name":"Orlen","brand":"Orlen","lat":52.06976,"lng":22.29433,"address":"Siedlecka 8a","city":"Wiśniew","services":["lpg"],"opening_hours":"24/7","p":{"src":"e","n95":6.37,"on":7.4,"lpg":2.89,"n98":7.97}},{"id":"pl_359467233","name":"Lotos","brand":"Independent","lat":52.03354,"lng":23.26983,"address":"Woskrzenice Duże","city":"Woskrzenice Duże","services":["lpg"],"opening_hours":"24/7","p":{"src":"e","n95":6.32,"on":7.35}},{"id":"pl_359467267","name":"Orlen (LPG)","brand":"Orlen (LPG)","lat":52.05556,"lng":22.51571,"p":{"src":"e","n95":6.37,"on":7.4,"lpg":2.89,"n98":7.97}},{"id":"pl_359821978","name":"Avia","brand":"Avia","lat":52.14237,"lng":21.50319,"address":"50","city":"Maliszew","opening_hours":"24/7","p":{"src":"e","n95":6.32,"on":7.35}},{"id":"pl_359822024","name":"Circle K Express","brand":"Circle K","lat":52.12238,"lng":21.50018,"address":"50","city":"Grębiszew","services":["lpg"],"opening_hours":"24/7","p":{"src":"e","n95":6.57,"on":7.6,"lpg":2.89,"n98":8.17}},{"id":"pl_361043034","name":"Tramex","brand":"Tramex","lat":52.2134,"lng":20.19485,"p":{"src":"e","n95":6.32,"on":7.35}},{"id":"pl_361045521","name":"BP","brand":"BP","lat":52.22486,"lng":20.28351,"services":["lpg"],"opening_hours":"24/7","p":{"src":"e","n95":6.62,"on":7.65,"lpg":2.89,"n98":8.22}},{"id":"pl_362294148","name":"Orlen","brand":"Orlen","lat":53.2561,"lng":14.48886,"p":{"src":"e","n95":6.37,"on":7.4,"lpg":2.89,"n98":7.97}},{"id":"pl_362294164","name":"WM","brand":"WM","lat":53.27332,"lng":14.50865,"p":{"src":"e","n95":6.32,"on":7.35}},{"id":"pl_362732986","name":"E LPG","brand":"E LPG","lat":51.43579,"lng":21.94776,"address":"Puławy","city":"Puławy","p":{"src":"e","n95":6.32,"on":7.35}},{"id":"pl_362733642","name":"Paliwa BAQ","brand":"Paliwa BAQ","lat":51.41625,"lng":22.00054,"p":{"src":"e","n95":6.32,"on":7.35}},{"id":"pl_362733732","name":"MOL","brand":"MOL","lat":51.4137,"lng":22.00157,"p":{"src":"e","n95":6.32,"on":7.35}},{"id":"pl_362733825","name":"Carrefour","brand":"Carrefour","lat":51.41437,"lng":21.97549,"opening_hours":"Mo-Sa 07:00-22:00, Su 08:00-21:00","p":{"src":"e","n95":6.32,"on":7.35}},{"id":"pl_362733873","name":"Stacja Paliw \"Petropol\"","brand":"Petropol","lat":51.46803,"lng":22.47072,"address":"Lubartowska 44A","city":"Kamionka","services":["lpg"],"opening_hours":"Mo-Su 06:00-22:00","p":{"src":"e","n95":6.32,"on":7.35}},{"id":"pl_362733957","name":"LPG","brand":"LPG","lat":51.40951,"lng":21.9121,"address":"Puławska 51","city":"Klikawa","p":{"src":"e","n95":6.32,"on":7.35}},{"id":"pl_362734194","name":"Stacja paliw","brand":"Stacja paliw","lat":51.46589,"lng":22.05598,"address":"Osiny","city":"Osiny","services":["lpg"],"opening_hours":"24/7","p":{"src":"e","n95":6.32,"on":7.35}},{"id":"pl_365661385","name":"KDM","brand":"KDM","lat":50.89032,"lng":14.83111,"services":["lpg"],"opening_hours":"24/7","p":{"src":"e","n95":6.32,"on":7.35}},{"id":"pl_368143685","name":"MOL","brand":"MOL","lat":51.74554,"lng":20.91146,"opening_hours":"24/7","p":{"src":"e","n95":6.32,"on":7.35}},{"id":"pl_368143686","name":"Circle K","brand":"Circle K","lat":51.36651,"lng":21.49018,"p":{"src":"e","n95":6.57,"on":7.6,"lpg":2.89,"n98":8.17}},{"id":"pl_368143689","name":"MOL","brand":"MOL","lat":51.59475,"lng":21.53377,"address":"Warszawska 59","city":"Kozienice","p":{"src":"e","n95":6.32,"on":7.35}},{"id":"pl_368143691","name":"Moya","brand":"Moya","lat":51.74644,"lng":20.90945,"opening_hours":"24/7","p":{"src":"e","n95":6.17,"on":7.2,"lpg":2.89}},{"id":"pl_368143702","name":"Avia","brand":"Avia","lat":51.35888,"lng":21.20685,"opening_hours":"24/7","p":{"src":"e","n95":6.32,"on":7.35}},{"id":"pl_368143716","name":"PP","brand":"PP","lat":51.21336,"lng":21.24792,"p":{"src":"e","n95":6.32,"on":7.35}},{"id":"pl_368143717","name":"Orlen","brand":"Orlen","lat":51.16737,"lng":21.23244,"address":"Danuty Siedzikówny \"Inki\" 16","city":"Iłża","p":{"src":"e","n95":6.37,"on":7.4,"lpg":2.89,"n98":7.97}},{"id":"pl_368143721","name":"Amic","brand":"Amic","lat":51.30187,"lng":20.97293,"address":"7","city":"Dobrut","p":{"src":"e","n95":6.22,"on":7.25,"lpg":2.89}},{"id":"pl_368143734","name":"Moya","brand":"Moya","lat":51.68696,"lng":21.56162,"services":["lpg"],"p":{"src":"e","n95":6.17,"on":7.2,"lpg":2.89}},{"id":"pl_368143737","name":"Trakt","brand":"Trakt","lat":51.53629,"lng":20.55553,"p":{"src":"e","n95":6.32,"on":7.35}},{"id":"pl_368143821","name":"Orlen","brand":"Orlen","lat":51.35851,"lng":21.56571,"address":"Wojska Polskiego 111","city":"Zwoleń","services":["lpg"],"opening_hours":"24/7","p":{"src":"e","n95":6.37,"on":7.4,"lpg":2.89,"n98":7.97}},{"id":"pl_370442184","name":"Pieprzyk","brand":"Pieprzyk","lat":51.08312,"lng":17.05975,"p":{"src":"e","n95":6.32,"on":7.35}},{"id":"pl_371156991","name":"Amic","brand":"Amic Energy","lat":53.34506,"lng":14.87192,"p":{"src":"e","n95":6.22,"on":7.25,"lpg":2.89}},{"id":"pl_372188522","name":"Stacja paliw","brand":"Stacja paliw","lat":51.13949,"lng":23.48793,"address":"Kolejowa","city":"Chełm","p":{"src":"e","n95":6.32,"on":7.35}},{"id":"pl_372188545","name":"Stacja paliw","brand":"Stacja paliw","lat":50.45579,"lng":22.24316,"services":["lpg"],"opening_hours":"Mo-Sa 05:00-22:00; Su 06:00-22:00","p":{"src":"e","n95":6.32,"on":7.35}},{"id":"pl_372188667","name":"Stacja paliw","brand":"Stacja paliw","lat":51.14356,"lng":23.47548,"address":"Chełm","city":"Chełm","p":{"src":"e","n95":6.32,"on":7.35}},{"id":"pl_372188673","name":"Orlen","brand":"Orlen","lat":50.60997,"lng":22.00809,"services":["lpg"],"p":{"src":"e","n95":6.37,"on":7.4,"lpg":2.89,"n98":7.97}},{"id":"pl_372188682","name":"Orlen","brand":"Orlen","lat":50.66284,"lng":21.84881,"services":["lpg"],"p":{"src":"e","n95":6.37,"on":7.4,"lpg":2.89,"n98":7.97}},{"id":"pl_372188684","name":"Petrochemia","brand":"Petrochemia","lat":51.16166,"lng":22.97012,"p":{"src":"e","n95":6.32,"on":7.35}},{"id":"pl_372188695","name":"Stacja paliw","brand":"Stacja paliw","lat":51.14328,"lng":23.49365,"address":"Chełm","city":"Chełm","p":{"src":"e","n95":6.32,"on":7.35}},{"id":"pl_372188706","name":"Stacja paliw","brand":"Stacja paliw","lat":51.14784,"lng":23.48525,"address":"Chełm","city":"Chełm","p":{"src":"e","n95":6.32,"on":7.35}},{"id":"pl_372188714","name":"Pagmex","brand":"Pagmex","lat":51.14521,"lng":23.47392,"address":"Chełm","city":"Chełm","p":{"src":"e","n95":6.32,"on":7.35}},{"id":"pl_372188784","name":"Eko","brand":"Eko","lat":51.14818,"lng":23.48742,"address":"Chełm","city":"Chełm","p":{"src":"e","n95":6.32,"on":7.35}},{"id":"pl_372188829","name":"EXoil","brand":"EXoil","lat":51.1454,"lng":23.49982,"address":"Chełm","city":"Chełm","p":{"src":"e","n95":6.32,"on":7.35}},{"id":"pl_372188836","name":"Orlen","brand":"Orlen","lat":51.12999,"lng":23.46779,"address":"Aleja Armii Krajowej 5","city":"Chełm","services":["lpg"],"p":{"src":"e","n95":6.37,"on":7.4,"lpg":2.89,"n98":7.97}},{"id":"pl_372188846","name":"Stacja paliw","brand":"Stacja paliw","lat":51.14708,"lng":23.48512,"address":"Chełm","city":"Chełm","p":{"src":"e","n95":6.32,"on":7.35}},{"id":"pl_372188904","name":"MOL","brand":"MOL","lat":51.14437,"lng":23.47516,"address":"Aleja Przyjaźni 5","city":"Chełm","p":{"src":"e","n95":6.32,"on":7.35}},{"id":"pl_372188984","name":"BP Chełm","brand":"BP","lat":51.13857,"lng":23.4858,"address":"Kolejowa","city":"Chełm","services":["lpg"],"p":{"src":"e","n95":6.62,"on":7.65,"lpg":2.89,"n98":8.22}},{"id":"pl_372188988","name":"Orlen","brand":"Orlen","lat":51.1438,"lng":23.50441,"address":"Chełm","city":"Chełm","p":{"src":"e","n95":6.37,"on":7.4,"lpg":2.89,"n98":7.97}},{"id":"pl_372189603","name":"Total Nisko","brand":"Total","lat":50.53935,"lng":22.09499,"services":["lpg"],"opening_hours":"24/7","p":{"src":"e","n95":6.42,"on":7.45}},{"id":"pl_372190384","name":"EKOPAL","brand":"EKOPAL","lat":50.78874,"lng":22.84438,"services":["lpg"],"opening_hours":"Mo-Su 06:00-22:00","p":{"src":"e","n95":6.32,"on":7.35}},{"id":"pl_372190451","name":"Ekopal","brand":"Ekopal","lat":50.87152,"lng":22.67478,"address":"Nowy Dwór","city":"Nowy Dwór","p":{"src":"e","n95":6.32,"on":7.35}},{"id":"pl_372190489","name":"Avia","brand":"Avia","lat":50.82012,"lng":22.72413,"services":["lpg"],"opening_hours":"Mo-Su 06:00-22:00","p":{"src":"e","n95":6.32,"on":7.35}},{"id":"pl_372190562","name":"Orlen","brand":"Orlen","lat":50.50472,"lng":22.14233,"address":"Nisko","city":"Nisko","services":["lpg"],"p":{"src":"e","n95":6.37,"on":7.4,"lpg":2.89,"n98":7.97}},{"id":"pl_373113029","name":"BP Meduza","brand":"BP","lat":52.13313,"lng":20.73749,"services":["lpg"],"p":{"src":"e","n95":6.62,"on":7.65,"lpg":2.89,"n98":8.22}},{"id":"pl_373279759","name":"Baltica","brand":"Baltica","lat":52.21912,"lng":20.83886,"services":["lpg"],"p":{"src":"e","n95":6.32,"on":7.35}},{"id":"pl_376036130","name":"Orlen","brand":"Orlen","lat":51.15742,"lng":15.04258,"services":["lpg"],"opening_hours":"24/7","p":{"src":"e","n95":6.37,"on":7.4,"lpg":2.89,"n98":7.97}},{"id":"pl_381930634","name":"Shell","brand":"Shell","lat":52.57486,"lng":14.64188,"p":{"src":"e","n95":6.67,"on":7.7,"n98":8.27}},{"id":"pl_381930697","name":"Circle K","brand":"Circle K","lat":52.58047,"lng":14.63951,"address":"Władysława Sikorskiego 1","city":"Kostrzyn nad Odrą","opening_hours":"24/7","p":{"src":"e","n95":6.57,"on":7.6,"lpg":2.89,"n98":8.17}},{"id":"pl_383886124","name":"Oktan","brand":"Oktan","lat":51.14702,"lng":15.17802,"services":["lpg"],"p":{"src":"e","n95":6.32,"on":7.35}},{"id":"pl_383902789","name":"Watis","brand":"Cetan","lat":51.10445,"lng":15.30501,"services":["lpg","adblue"],"p":{"src":"e","n95":6.32,"on":7.35}},{"id":"pl_383902793","name":"Orlen","brand":"Orlen","lat":51.09931,"lng":15.30926,"services":["lpg"],"p":{"src":"e","n95":6.37,"on":7.4,"lpg":2.89,"n98":7.97}},{"id":"pl_385384927","name":"Stacja paliw","brand":"Stacja paliw","lat":52.47781,"lng":15.78071,"p":{"src":"e","n95":6.32,"on":7.35}},{"id":"pl_390308229","name":"Stacja Paliw","brand":"Stacja Paliw","lat":52.4617,"lng":21.22228,"p":{"src":"e","n95":6.32,"on":7.35}},{"id":"pl_391052402","name":"Shell 4134 Europejska","brand":"Shell","lat":53.42092,"lng":14.50079,"address":"Dworska","city":"Szczecin","services":["lpg"],"opening_hours":"24/7","p":{"src":"e","n95":6.67,"on":7.7,"n98":8.27}},{"id":"pl_392667581","name":"Shell","brand":"Shell","lat":50.03347,"lng":19.96937,"services":["lpg"],"opening_hours":"24/7","p":{"src":"e","n95":6.67,"on":7.7,"n98":8.27}},{"id":"pl_409854899","name":"Slovnaft Partner","brand":"Slovnaft","lat":50.80468,"lng":20.44756,"address":"1C","city":"Chęciny","services":["lpg"],"p":{"src":"e","n95":6.32,"on":7.35}},{"id":"pl_410375102","name":"Circle K Express","brand":"Circle K","lat":53.4548,"lng":14.47316,"p":{"src":"e","n95":6.57,"on":7.6,"lpg":2.89,"n98":8.17}},{"id":"pl_410539455","name":"Circle K","brand":"Circle K","lat":52.18794,"lng":20.91073,"address":"Aleje Jerozolimskie 228","city":"Warszawa","opening_hours":"24/7","p":{"src":"e","n95":6.57,"on":7.6,"lpg":2.89,"n98":8.17}},{"id":"pl_410703559","name":"Orlen","brand":"Orlen","lat":52.2241,"lng":21.05946,"address":"Wersalska 3","city":"Warszawa","services":["lpg"],"opening_hours":"24/7","p":{"src":"e","n95":6.37,"on":7.4,"lpg":2.89,"n98":7.97}},{"id":"pl_410796506","name":"BP Okęcie","brand":"BP","lat":52.18487,"lng":20.95429,"address":"Aleja Krakowska 208","city":"Warszawa","services":["lpg","adblue"],"opening_hours":"24/7","p":{"src":"e","n95":6.62,"on":7.65,"lpg":2.89,"n98":8.22}},{"id":"pl_411513532","name":"Shell","brand":"Shell","lat":52.22303,"lng":20.93105,"address":"Wolska 195","city":"Warszawa","opening_hours":"24/7","p":{"src":"r","n95":6.35,"on":7.7,"n98":8.27,"at":"2026-05-10T09:22"}},{"id":"pl_413680365","name":"Circle K","brand":"Circle K","lat":51.09615,"lng":17.04002,"services":["lpg"],"p":{"src":"e","n95":6.57,"on":7.6,"lpg":2.89,"n98":8.17}},{"id":"pl_416537105","name":"Artus","brand":"Artus","lat":52.1913,"lng":20.94015,"p":{"src":"e","n95":6.32,"on":7.35}},{"id":"pl_417038510","name":"Circle K","brand":"Circle K","lat":52.45679,"lng":16.98485,"services":["lpg"],"opening_hours":"24/7","p":{"src":"e","n95":6.57,"on":7.6,"lpg":2.89,"n98":8.17}},{"id":"pl_417904171","name":"Stacja paliw","brand":"Stacja paliw","lat":50.69803,"lng":20.46037,"address":"Sobków","city":"Sobków","p":{"src":"e","n95":6.32,"on":7.35}},{"id":"pl_417909148","name":"Orlen","brand":"Orlen","lat":50.85474,"lng":21.08588,"address":"Nowa Słupia","city":"Nowa Słupia","p":{"src":"e","n95":6.37,"on":7.4,"lpg":2.89,"n98":7.97}},{"id":"pl_417910401","name":"Orlen","brand":"Orlen","lat":51.07204,"lng":19.41901,"services":["lpg"],"opening_hours":"24/7","p":{"src":"e","n95":6.37,"on":7.4,"lpg":2.89,"n98":7.97}},{"id":"pl_417910468","name":"Stacja paliw","brand":"Stacja paliw","lat":50.33922,"lng":21.44745,"p":{"src":"e","n95":6.32,"on":7.35}},{"id":"pl_417910498","name":"Orlen","brand":"Orlen","lat":50.49139,"lng":21.55043,"address":"Baranów Sandomierski","city":"Baranów Sandomierski","p":{"src":"e","n95":6.37,"on":7.4,"lpg":2.89,"n98":7.97}},{"id":"pl_417916479","name":"Circle K","brand":"Circle K","lat":50.57078,"lng":21.69124,"p":{"src":"e","n95":6.57,"on":7.6,"lpg":2.89,"n98":8.17}},{"id":"pl_417916999","name":"Stacja paliw Top Gaz","brand":"Stacja paliw Top Gaz","lat":50.38482,"lng":21.45921,"services":["lpg"],"p":{"src":"e","n95":6.32,"on":7.35}},{"id":"pl_419354159","name":"Orlen","brand":"Orlen","lat":51.12671,"lng":17.04649,"address":"Jedności Narodowej 156","city":"Wrocław","services":["lpg"],"opening_hours":"24/7","p":{"src":"e","n95":6.37,"on":7.4,"lpg":2.89,"n98":7.97}},{"id":"pl_421526087","name":"Circle K","brand":"Circle K","lat":52.21449,"lng":21.13407,"services":["lpg"],"opening_hours":"24/7","p":{"src":"e","n95":6.57,"on":7.6,"lpg":2.89,"n98":8.17}},{"id":"pl_422635717","name":"BP Staw","brand":"BP","lat":50.24515,"lng":19.0374,"address":"Aleja Górnośląska 55","city":"Katowice","services":["lpg"],"p":{"src":"e","n95":6.62,"on":7.65,"lpg":2.89,"n98":8.22}},{"id":"pl_429234951","name":"Orlen","brand":"Orlen","lat":52.14867,"lng":19.92553,"address":"72A","city":"Goleńsko","services":["lpg"],"opening_hours":"24/7","p":{"src":"e","n95":6.37,"on":7.4,"lpg":2.89,"n98":7.97}},{"id":"pl_430305044","name":"Top-Gaz","brand":"Top-Gaz","lat":50.28759,"lng":21.44844,"address":"Wolności 66","city":"Mielec","p":{"src":"e","n95":6.32,"on":7.35}},{"id":"pl_430694351","name":"Stacja LPG","brand":"Stacja LPG","lat":50.20368,"lng":19.78208,"services":["lpg"],"p":{"src":"e","n95":6.32,"on":7.35}},{"id":"pl_430788862","name":"Avia","brand":"Avia","lat":52.71037,"lng":16.38586,"address":"Adama Mickiewicza","city":"Wronki","services":["lpg"],"opening_hours":"Mo-Su 05:00-23:00","p":{"src":"e","n95":6.32,"on":7.35}},{"id":"pl_430999459","name":"Orlen","brand":"Orlen","lat":52.42697,"lng":16.93506,"services":["lpg"],"opening_hours":"24/7","p":{"src":"e","n95":6.37,"on":7.4,"lpg":2.89,"n98":7.97}},{"id":"pl_431258856","name":"MARO-TRANS","brand":"MARO-TRANS","lat":50.10918,"lng":21.48864,"address":"Mielecka 5","city":"Brzeźnica","services":["lpg"],"p":{"src":"e","n95":6.32,"on":7.35}},{"id":"pl_440272271","name":"Stacja paliw","brand":"Stacja paliw","lat":50.22497,"lng":19.14896,"p":{"src":"e","n95":6.32,"on":7.35}},{"id":"pl_442050457","name":"BP","brand":"BP","lat":54.05533,"lng":14.94023,"address":"Wojska Polskiego","city":"Pobierowo","services":["lpg"],"p":{"src":"e","n95":6.62,"on":7.65,"lpg":2.89,"n98":8.22}},{"id":"pl_442461931","name":"Auchan","brand":"Auchan","lat":54.58515,"lng":18.36876,"services":["lpg"],"p":{"src":"e","n95":6.07,"on":7.1}},{"id":"pl_442667686","name":"Stacja paliw","brand":"Stacja paliw","lat":51.44395,"lng":19.7534,"p":{"src":"e","n95":6.32,"on":7.35}},{"id":"pl_442668115","name":"Bak Stacja Benzynowa","brand":"Bak Stacja Benzynowa","lat":51.61439,"lng":20.06738,"address":"58","city":"Olszowiec","services":["lpg"],"p":{"src":"e","n95":6.32,"on":7.35}},{"id":"pl_442687538","name":"Stacja paliw","brand":"Stacja paliw","lat":53.57873,"lng":19.58622,"p":{"src":"e","n95":6.32,"on":7.35}},{"id":"pl_443430260","name":"Stacja paliw","brand":"Stacja paliw","lat":52.08663,"lng":18.82218,"p":{"src":"e","n95":6.32,"on":7.35}},{"id":"pl_443430261","name":"Stacja paliw","brand":"Stacja paliw","lat":52.08111,"lng":18.8252,"p":{"src":"e","n95":6.32,"on":7.35}},{"id":"pl_443430262","name":"EKO-JAZ","brand":"EKO-JAZ","lat":52.09492,"lng":18.79655,"services":["lpg"],"p":{"src":"e","n95":6.32,"on":7.35}},{"id":"pl_444964355","name":"Stacja paliw","brand":"Stacja paliw","lat":53.13097,"lng":23.07449,"p":{"src":"e","n95":6.32,"on":7.35}},{"id":"pl_450090249","name":"Orlen","brand":"Orlen","lat":52.5895,"lng":20.80956,"address":"Warszawska","city":"Nasielsk","p":{"src":"e","n95":6.37,"on":7.4,"lpg":2.89,"n98":7.97}},{"id":"pl_457458770","name":"Stacja paliw","brand":"Stacja paliw","lat":50.98681,"lng":22.14729,"p":{"src":"e","n95":6.32,"on":7.35}},{"id":"pl_458440934","name":"MOL","brand":"MOL","lat":52.21635,"lng":20.85897,"services":["lpg"],"opening_hours":"24/7","p":{"src":"e","n95":6.32,"on":7.35}},{"id":"pl_459460662","name":"Shell","brand":"Shell","lat":51.79322,"lng":19.41808,"address":"Bolesława Limanowskiego 181/185","city":"Łódź","p":{"src":"e","n95":6.67,"on":7.7,"n98":8.27}},{"id":"pl_463435014","name":"Horex","brand":"Horex","lat":51.53969,"lng":14.73411,"address":"Graniczna 3b","city":"Łęknica","p":{"src":"e","n95":6.32,"on":7.35}},{"id":"pl_464229385","name":"Stacja paliw","brand":"Stacja paliw","lat":52.51849,"lng":23.13453,"p":{"src":"e","n95":6.32,"on":7.35}},{"id":"pl_469129060","name":"Circle K Express","brand":"Circle K","lat":51.08628,"lng":17.04722,"services":["lpg"],"opening_hours":"24/7","p":{"src":"e","n95":6.57,"on":7.6,"lpg":2.89,"n98":8.17}},{"id":"pl_470938452","name":"BP Andaluzja","brand":"BP","lat":50.36981,"lng":18.94491,"address":"Bytomska 50","city":"Piekary Śląskie","services":["lpg"],"opening_hours":"24/7","p":{"src":"e","n95":6.62,"on":7.65,"lpg":2.89,"n98":8.22}},{"id":"pl_472278434","name":"Orlen","brand":"Orlen","lat":50.29157,"lng":18.74761,"address":"Władysława Sikorskiego 115","city":"Gliwice","services":["lpg"],"p":{"src":"e","n95":6.37,"on":7.4,"lpg":2.89,"n98":7.97}},{"id":"pl_472593709","name":"Orlen","brand":"Orlen","lat":51.17779,"lng":16.15821,"p":{"src":"e","n95":6.37,"on":7.4,"lpg":2.89,"n98":7.97}},{"id":"pl_475981157","name":"Alfa","brand":"Alfa","lat":50.41328,"lng":22.34335,"opening_hours":"Mo-Sa 06:00-20:00; Su 09:00-19:00","p":{"src":"e","n95":6.32,"on":7.35}},{"id":"pl_476214512","name":"Lotos","brand":"Lotos","lat":52.9685,"lng":19.90331,"address":"Mławska 13","city":"Bieżuń","p":{"src":"e","n95":6.37,"on":7.4,"lpg":2.89}},{"id":"pl_476214768","name":"Lotos Optima","brand":"Lotos Optima","lat":53.38856,"lng":19.931,"opening_hours":"Mo-Sa 06:00-22:00; Su 08:00-22:00","p":{"src":"e","n95":6.37,"on":7.4,"lpg":2.89}},{"id":"pl_476214790","name":"Orlen","brand":"Orlen","lat":53.4498,"lng":20.03333,"address":"Jabłonowo","city":"Jabłonowo","services":["lpg"],"p":{"src":"e","n95":6.37,"on":7.4,"lpg":2.89,"n98":7.97}},{"id":"pl_476214813","name":"Huzar","brand":"Huzar","lat":53.2544,"lng":20.89679,"address":"Zygmunta Padlewskiego","city":"Chorzele","p":{"src":"e","n95":6.12,"on":7.15,"lpg":2.89}},{"id":"pl_476214938","name":"LPG","brand":"LPG","lat":53.00022,"lng":20.91795,"address":"Sierakowo","city":"Sierakowo","p":{"src":"e","n95":6.32,"on":7.35}},{"id":"pl_476214955","name":"Orlen","brand":"Orlen","lat":52.8575,"lng":20.63536,"address":"Sońska 4","city":"Ciechanów","p":{"src":"e","n95":6.37,"on":7.4,"lpg":2.89,"n98":7.97}},{"id":"pl_476215012","name":"BP","brand":"BP","lat":53.0747,"lng":20.3531,"address":"Wiśniewo","city":"Wiśniewo","services":["lpg"],"opening_hours":"24/7","p":{"src":"e","n95":6.62,"on":7.65,"lpg":2.89,"n98":8.22}},{"id":"pl_476215028","name":"Petrochemia Płock","brand":"Petrochemia Płock","lat":52.6267,"lng":20.71912,"address":"Świerkowo","city":"Świerkowo","p":{"src":"e","n95":6.32,"on":7.35}},{"id":"pl_476215141","name":"PPHU Hubertusk LPG Gaz","brand":"LPG","lat":52.71594,"lng":21.05222,"address":"618","city":"Pułtusk","p":{"src":"e","n95":6.32,"on":7.35}},{"id":"pl_476215145","name":"LUX-MOTOR OIL","brand":"LUX-MOTOR OIL","lat":52.97785,"lng":21.45763,"address":"Sadykierz","city":"Sadykierz","opening_hours":"Mo-Su,PH 05:00-23:00","p":{"src":"e","n95":6.32,"on":7.35}},{"id":"pl_476215148","name":"Stacja Paliw J w R Wszelaki","brand":"Petrochemia Płock","lat":52.93462,"lng":19.26459,"address":"54","city":"Janiszewo","p":{"src":"e","n95":6.32,"on":7.35}},{"id":"pl_476215872","name":"Orlen","brand":"Orlen","lat":53.35281,"lng":20.42837,"address":"Warszawska","city":"Nidzica","services":["lpg"],"p":{"src":"e","n95":6.37,"on":7.4,"lpg":2.89,"n98":7.97}},{"id":"pl_476215876","name":"Orlen","brand":"Orlen","lat":52.88758,"lng":20.27977,"address":"Wyzwolenia 1b","city":"Strzegowo","p":{"src":"e","n95":6.37,"on":7.4,"lpg":2.89,"n98":7.97}},{"id":"pl_476215965","name":"BP","brand":"BP","lat":53.40742,"lng":19.59213,"address":"Henryka Sienkiewicza 4","city":"Kurzętnik","services":["lpg"],"opening_hours":"24/7","p":{"src":"e","n95":6.62,"on":7.65,"lpg":2.89,"n98":8.22}},{"id":"pl_476215969","name":"Orlen","brand":"Orlen","lat":52.87657,"lng":19.36907,"address":"Warszawska 4","city":"Skępe","services":["lpg"],"p":{"src":"e","n95":6.37,"on":7.4,"lpg":2.89,"n98":7.97}},{"id":"pl_476531236","name":"Stacja Paliw - Jarosz","brand":"\"Jarosz\"","lat":49.98802,"lng":18.2641,"services":["lpg"],"p":{"src":"e","n95":6.32,"on":7.35}},{"id":"pl_481952969","name":"Orlen","brand":"Orlen","lat":51.2423,"lng":22.5408,"address":"Głęboka 32","city":"Lublin","p":{"src":"e","n95":6.37,"on":7.4,"lpg":2.89,"n98":7.97}},{"id":"pl_481952984","name":"Orlen","brand":"Orlen","lat":51.26437,"lng":22.57208,"address":"Aleja Spółdzielczości Pracy 30","city":"Lublin","services":["lpg"],"opening_hours":"24/7","p":{"src":"e","n95":6.37,"on":7.4,"lpg":2.89,"n98":7.97}},{"id":"pl_481953189","name":"Shell","brand":"Shell","lat":51.25355,"lng":22.56208,"address":"Bolesława Prusa 8a","city":"Lublin","services":["lpg"],"p":{"src":"e","n95":6.67,"on":7.7,"n98":8.27}},{"id":"pl_481953193","name":"LPG","brand":"LPG","lat":51.25825,"lng":22.44639,"address":"Płouszowice","city":"Płouszowice","p":{"src":"e","n95":6.32,"on":7.35}},{"id":"pl_481953340","name":"Orlen","brand":"Orlen","lat":51.32597,"lng":21.9509,"address":"Doktora Tadeusza Tyszkiewicza","city":"Kazimierz Dolny","services":["lpg"],"opening_hours":"24/7","p":{"src":"e","n95":6.37,"on":7.4,"lpg":2.89,"n98":7.97}},{"id":"pl_481953349","name":"Artus","brand":"Artus","lat":51.17801,"lng":22.42332,"p":{"src":"e","n95":6.32,"on":7.35}},{"id":"pl_481953381","name":"LPG","brand":"LPG","lat":51.24332,"lng":22.65498,"address":"Mełgiewska","city":"Lublin","p":{"src":"e","n95":6.32,"on":7.35}},{"id":"pl_481953592","name":"LPG","brand":"LPG","lat":51.24037,"lng":22.67826,"p":{"src":"e","n95":6.32,"on":7.35}},{"id":"pl_484995159","name":"TransOil Express","brand":"TransOil Express","lat":50.32184,"lng":19.10338,"p":{"src":"e","n95":6.32,"on":7.35}},{"id":"pl_485217183","name":"MOL","brand":"MOL","lat":50.34295,"lng":18.91814,"p":{"src":"e","n95":6.32,"on":7.35}},{"id":"pl_491513557","name":"BP","brand":"BP","lat":50.08475,"lng":19.11183,"services":["lpg","adblue"],"opening_hours":"24/7","p":{"src":"e","n95":6.62,"on":7.65,"lpg":2.89,"n98":8.22}},{"id":"pl_494590832","name":"Stacja paliw","brand":"Stacja paliw","lat":53.4292,"lng":14.46622,"p":{"src":"e","n95":6.32,"on":7.35}},{"id":"pl_494721555","name":"Stacja LPG","brand":"Janex","lat":50.06986,"lng":20.01159,"services":["lpg"],"opening_hours":"24/7","p":{"src":"e","n95":6.32,"on":7.35}},{"id":"pl_495206878","name":"MPO","brand":"Miejskie Przedsiębiorstwio Oczyszczania w Krakowie","lat":50.07028,"lng":20.00646,"services":["lpg"],"opening_hours":"PH,Mo-Su 00:00-24:00","p":{"src":"e","n95":6.32,"on":7.35}},{"id":"pl_496315965","name":"Circle K","brand":"Circle K","lat":53.38496,"lng":14.64206,"address":"Gryfińska 60","city":"Szczecin","services":["lpg"],"opening_hours":"24/7","p":{"src":"e","n95":6.57,"on":7.6,"lpg":2.89,"n98":8.17}},{"id":"pl_496315984","name":"Orlen","brand":"Orlen","lat":53.39554,"lng":14.61596,"address":"Eskadrowa 1","city":"Szczecin","services":["lpg"],"p":{"src":"e","n95":6.37,"on":7.4,"lpg":2.89,"n98":7.97}},{"id":"pl_498136729","name":"Pronar","brand":"Pronar","lat":52.84025,"lng":23.76349,"p":{"src":"e","n95":6.32,"on":7.35}},{"id":"pl_498233984","name":"Orlen","brand":"Orlen","lat":51.79769,"lng":16.65204,"services":["lpg","adblue"],"opening_hours":"24/7","p":{"src":"e","n95":6.37,"on":7.4,"lpg":2.89,"n98":7.97}},{"id":"pl_498761356","name":"Shell","brand":"Shell","lat":50.31262,"lng":19.18748,"services":["lpg"],"p":{"src":"e","n95":6.67,"on":7.7,"n98":8.27}},{"id":"pl_499874446","name":"Orlen","brand":"Orlen","lat":52.28044,"lng":20.12415,"address":"58A","city":"Wężyki","services":["lpg"],"opening_hours":"24/7","p":{"src":"e","n95":6.37,"on":7.4,"lpg":2.89,"n98":7.97}},{"id":"pl_499874507","name":"Krupińscy","brand":"Krupińscy","lat":52.01389,"lng":20.38488,"p":{"src":"e","n95":6.32,"on":7.35}},{"id":"pl_499874738","name":"LPG","brand":"LPG","lat":52.61678,"lng":20.38321,"p":{"src":"e","n95":6.32,"on":7.35}},{"id":"pl_499875030","name":"Artus","brand":"Artus","lat":52.21735,"lng":20.20001,"address":"1A","city":"Dachowa","services":["lpg"],"opening_hours":"24/7","p":{"src":"e","n95":6.32,"on":7.35}},{"id":"pl_499875715","name":"Orlen","brand":"Bliska","lat":52.26677,"lng":20.46927,"services":["lpg"],"opening_hours":"24/7","p":{"src":"e","n95":6.32,"on":7.35}},{"id":"pl_499879915","name":"Moya","brand":"Moya","lat":52.63885,"lng":20.14345,"services":["lpg"],"p":{"src":"e","n95":6.17,"on":7.2,"lpg":2.89}},{"id":"pl_499881139","name":"Na Rozdrożu","brand":"Bliska","lat":52.06793,"lng":20.06218,"address":"Nieborów","city":"Nieborów","opening_hours":"24/7","p":{"src":"e","n95":6.32,"on":7.35}},{"id":"pl_500378949","name":"Shell","brand":"Shell","lat":50.85055,"lng":16.47542,"p":{"src":"e","n95":6.67,"on":7.7,"n98":8.27}},{"id":"pl_505370469","name":"Orlen","brand":"Orlen","lat":54.20988,"lng":16.15288,"address":"Morska 150a","city":"Koszalin","services":["lpg"],"opening_hours":"24/7","p":{"src":"e","n95":6.37,"on":7.4,"lpg":2.89,"n98":7.97}},{"id":"pl_506889803","name":"Circle K","brand":"Circle K","lat":50.07191,"lng":20.02865,"address":"Aleja Jana Pawła II 200","city":"Kraków","services":["lpg"],"opening_hours":"24/7","p":{"src":"e","n95":6.57,"on":7.6,"lpg":2.89,"n98":8.17}},{"id":"pl_507907780","name":"Stacja paliw","brand":"Stacja paliw","lat":51.10933,"lng":22.10915,"p":{"src":"e","n95":6.32,"on":7.35}},{"id":"pl_522089413","name":"Grupa Pieprzyk","brand":"Grupa Pieprzyk","lat":50.91492,"lng":16.24443,"p":{"src":"e","n95":6.32,"on":7.35}},{"id":"pl_523678074","name":"Shell","brand":"Shell","lat":53.40427,"lng":14.50366,"opening_hours":"24/7","p":{"src":"e","n95":6.67,"on":7.7,"n98":8.27}},{"id":"pl_528538283","name":"Stacja paliw","brand":"Stacja paliw","lat":51.96065,"lng":18.53028,"address":"WLK 83","city":"Wietchinin","p":{"src":"e","n95":6.32,"on":7.35}},{"id":"pl_528538730","name":"Orlen","brand":"Orlen","lat":51.9042,"lng":18.61012,"address":"Dobra","city":"Dobra","services":["lpg"],"opening_hours":"24/7","p":{"src":"e","n95":6.37,"on":7.4,"lpg":2.89,"n98":7.97}},{"id":"pl_528540292","name":"Stacja paliw","brand":"Stacja paliw","lat":51.29301,"lng":18.17193,"address":"Wieruszów","city":"Wieruszów","p":{"src":"e","n95":6.32,"on":7.35}},{"id":"pl_528541047","name":"Bliska","brand":"Bliska","lat":51.41663,"lng":18.60297,"opening_hours":"24/7","p":{"src":"e","n95":6.32,"on":7.35}},{"id":"pl_529534460","name":"Orlen","brand":"Orlen","lat":52.28332,"lng":17.88703,"address":"Warszawska 66C","city":"Słupca","services":["lpg"],"opening_hours":"24/7","p":{"src":"e","n95":6.37,"on":7.4,"lpg":2.89,"n98":7.97}},{"id":"pl_531423015","name":"Circle K Express","brand":"Circle K","lat":52.57977,"lng":14.64086,"p":{"src":"e","n95":6.57,"on":7.6,"lpg":2.89,"n98":8.17}},{"id":"pl_531595468","name":"Shell","brand":"Shell","lat":52.10441,"lng":20.63554,"opening_hours":"Mo-Su,PH 08:00-08:00","p":{"src":"e","n95":6.67,"on":7.7,"n98":8.27}},{"id":"pl_537204557","name":"LPG","brand":"LPG","lat":52.04748,"lng":20.59417,"address":"Kuklówka","city":"Kuklówka","services":["lpg"],"p":{"src":"e","n95":6.32,"on":7.35}},{"id":"pl_537222384","name":"LPG","brand":"LPG","lat":52.08711,"lng":20.94167,"address":"Wojska Polskiego 92C","city":"Lesznowola","p":{"src":"e","n95":6.32,"on":7.35}},{"id":"pl_537234784","name":"Shell","brand":"Shell","lat":52.08358,"lng":21.03736,"address":"Generała Leopolda Okulickiego","opening_hours":"24/7","p":{"src":"e","n95":6.67,"on":7.7,"n98":8.27}},{"id":"pl_537259345","name":"Orlen","brand":"Orlen","lat":52.02878,"lng":20.67491,"p":{"src":"e","n95":6.37,"on":7.4,"lpg":2.89,"n98":7.97}},{"id":"pl_537560669","name":"Shell","brand":"Shell","lat":53.16072,"lng":16.75644,"services":["lpg"],"p":{"src":"e","n95":6.67,"on":7.7,"n98":8.27}},{"id":"pl_537653776","name":"Orlen","brand":"Orlen","lat":52.89581,"lng":16.55097,"services":["lpg"],"opening_hours":"24/7","p":{"src":"e","n95":6.37,"on":7.4,"lpg":2.89,"n98":7.97}},{"id":"pl_537885011","name":"CircleK","brand":"Circle K","lat":50.28326,"lng":19.55126,"services":["lpg"],"opening_hours":"24/7","p":{"src":"e","n95":6.57,"on":7.6,"lpg":2.89,"n98":8.17}},{"id":"pl_543381721","name":"Stacja paliw","brand":"Stacja paliw","lat":50.20806,"lng":18.30909,"services":["lpg"],"p":{"src":"e","n95":6.32,"on":7.35}},{"id":"pl_544444405","name":"Orlen","brand":"Orlen","lat":50.03989,"lng":19.96255,"services":["lpg"],"opening_hours":"24/7","p":{"src":"e","n95":6.37,"on":7.4,"lpg":2.89,"n98":7.97}},{"id":"pl_546862766","name":"Orlen","brand":"Orlen","lat":49.60275,"lng":20.71558,"address":"Nawojowska 99","city":"Nowy Sącz","services":["lpg","car_wash"],"opening_hours":"24/7","p":{"src":"e","n95":6.37,"on":7.4,"lpg":2.89,"n98":7.97}},{"id":"pl_552899223","name":"Moya","brand":"Moya","lat":50.07437,"lng":19.42386,"address":"Wygiełzów","city":"Wygiełzów","p":{"src":"e","n95":6.17,"on":7.2,"lpg":2.89}},{"id":"pl_552992635","name":"Stacja LPG","brand":"Stacja LPG","lat":50.13657,"lng":19.40421,"address":"Podwale 53A","city":"Chrzanów","services":["lpg"],"opening_hours":"24/7","p":{"src":"e","n95":6.32,"on":7.35}},{"id":"pl_554973917","name":"Carrefour","brand":"Carrefour","lat":50.30864,"lng":18.64703,"p":{"src":"e","n95":6.32,"on":7.35}},{"id":"pl_559440049","name":"Orlen","brand":"Orlen","lat":52.1967,"lng":14.78928,"services":["lpg","adblue"],"opening_hours":"24/7","p":{"src":"e","n95":6.37,"on":7.4,"lpg":2.89,"n98":7.97}},{"id":"pl_560715183","name":"Orlen","brand":"Orlen","lat":54.18021,"lng":22.62138,"p":{"src":"e","n95":6.37,"on":7.4,"lpg":2.89,"n98":7.97}},{"id":"pl_562750667","name":"Circle K","brand":"Circle K","lat":49.6873,"lng":21.75133,"address":"Krosno","city":"Krosno","opening_hours":"24/7","p":{"src":"e","n95":6.57,"on":7.6,"lpg":2.89,"n98":8.17}},{"id":"pl_562750916","name":"RBDiM","brand":"RBDiM","lat":49.70073,"lng":21.74239,"address":"Krosno","city":"Krosno","p":{"src":"e","n95":6.32,"on":7.35}},{"id":"pl_562753780","name":"MOL","brand":"MOL","lat":49.70758,"lng":21.72825,"address":"Podkarpacka 38","city":"Krosno","opening_hours":"24/7","p":{"src":"e","n95":6.32,"on":7.35}},{"id":"pl_562767139","name":"Orlen","brand":"Orlen","lat":49.65124,"lng":21.82116,"opening_hours":"24/7","p":{"src":"e","n95":6.37,"on":7.4,"lpg":2.89,"n98":7.97}},{"id":"pl_566498907","name":"Ewa","brand":"Ewa","lat":50.01995,"lng":22.26144,"address":"Markowa","city":"Markowa","p":{"src":"e","n95":6.32,"on":7.35}},{"id":"pl_566829628","name":"E. Leclerc","brand":"E. Leclerc","lat":50.01852,"lng":22.01798,"services":["lpg"],"opening_hours":"06:00-22:00","p":{"src":"e","n95":6.32,"on":7.35}},{"id":"pl_566829684","name":"Orlen","brand":"Orlen","lat":50.06298,"lng":22.0113,"services":["lpg"],"opening_hours":"24/7","p":{"src":"e","n95":6.37,"on":7.4,"lpg":2.89,"n98":7.97}},{"id":"pl_566986898","name":"MOL","brand":"MOL","lat":49.85378,"lng":19.91682,"p":{"src":"e","n95":6.32,"on":7.35}},{"id":"pl_568931159","name":"Orlen","brand":"PKN Orlen","lat":50.28752,"lng":21.40344,"address":"Mielec","city":"Mielec","p":{"src":"e","n95":6.37,"on":7.4,"lpg":2.89,"n98":7.97}},{"id":"pl_568931728","name":"Slovnaft Partner","brand":"Slovnaft","lat":50.28344,"lng":21.42865,"address":"Stanisława Moniuszki 8","city":"Mielec","opening_hours":"Mo-Sa 06:00-22:00, Su 08:00-16:00","p":{"src":"e","n95":6.32,"on":7.35}},{"id":"pl_568932112","name":"Stacja LPG","brand":"Stacja LPG","lat":50.28511,"lng":21.43742,"address":"Mielec","city":"Mielec","p":{"src":"e","n95":6.32,"on":7.35}},{"id":"pl_568934312","name":"Leśna Polana","brand":"Leśna Polana","lat":50.28296,"lng":21.47851,"p":{"src":"e","n95":6.32,"on":7.35}},{"id":"pl_570307408","name":"Orlen","brand":"Orlen","lat":49.89693,"lng":21.3797,"opening_hours":"24/7","p":{"src":"e","n95":6.37,"on":7.4,"lpg":2.89,"n98":7.97}},{"id":"pl_571566281","name":"Circle K","brand":"Circle K","lat":49.87632,"lng":21.7535,"address":"26","city":"Dobrzechów","p":{"src":"e","n95":6.57,"on":7.6,"lpg":2.89,"n98":8.17}},{"id":"pl_571566421","name":"Orlen","brand":"Orlen","lat":49.8716,"lng":21.77516,"address":"Jana Sobieskiego 1","city":"Strzyżów","services":["lpg"],"opening_hours":"24/7","p":{"src":"e","n95":6.37,"on":7.4,"lpg":2.89,"n98":7.97}},{"id":"pl_571569552","name":"BP","brand":"BP","lat":50.06864,"lng":21.67926,"address":"Sędziszów Małopolski","city":"Sędziszów Małopolski","p":{"src":"e","n95":6.62,"on":7.65,"lpg":2.89,"n98":8.22}},{"id":"pl_571569571","name":"Benzyna","brand":"Benzyna","lat":50.05903,"lng":21.68801,"address":"Sędziszów Małopolski","city":"Sędziszów Małopolski","p":{"src":"e","n95":6.32,"on":7.35}},{"id":"pl_571569582","name":"Stacja paliw","brand":"Orlen","lat":50.0648,"lng":21.68833,"address":"Sędziszów Małopolski","city":"Sędziszów Małopolski","services":["lpg"],"p":{"src":"e","n95":6.37,"on":7.4,"lpg":2.89,"n98":7.97}},{"id":"pl_571652866","name":"Orlen","brand":"Orlen","lat":54.51345,"lng":18.5336,"address":"Śląska 45/47","city":"Gdynia","opening_hours":"24/7","p":{"src":"e","n95":6.37,"on":7.4,"lpg":2.89,"n98":7.97}},{"id":"pl_577423448","name":"Stacja paliw","brand":"Stacja paliw","lat":50.1195,"lng":20.51842,"address":"Ujście Solne","city":"Ujście Solne","p":{"src":"e","n95":6.32,"on":7.35}},{"id":"pl_577425029","name":"TankChem","brand":"TankChem","lat":50.1755,"lng":20.58226,"address":"Przedmieście","city":"Koszyce","p":{"src":"e","n95":6.32,"on":7.35}},{"id":"pl_577428968","name":"LPG","brand":"LPG","lat":50.07582,"lng":20.92216,"p":{"src":"e","n95":6.32,"on":7.35}},{"id":"pl_577429423","name":"Orlen","brand":"Orlen","lat":50.07386,"lng":21.02143,"address":"Tarnowska 7","city":"Lisia Góra","p":{"src":"e","n95":6.37,"on":7.4,"lpg":2.89,"n98":7.97}},{"id":"pl_577431328","name":"Stacja paliw","brand":"Stacja paliw","lat":50.14091,"lng":20.90245,"p":{"src":"e","n95":6.32,"on":7.35}},{"id":"pl_577436168","name":"Stacja paliw","brand":"Stacja paliw","lat":50.12245,"lng":21.00234,"address":"Brnik","city":"Brnik","p":{"src":"e","n95":6.32,"on":7.35}},{"id":"pl_577437477","name":"Stacja paliw","brand":"Orlen","lat":50.1044,"lng":21.01328,"address":"Breń","city":"Breń","p":{"src":"e","n95":6.37,"on":7.4,"lpg":2.89,"n98":7.97}},{"id":"pl_577442291","name":"Slovnaft Partner","brand":"Slovnaft","lat":50.29928,"lng":21.06974,"services":["lpg"],"p":{"src":"e","n95":6.32,"on":7.35}},{"id":"pl_581895736","name":"Shell","brand":"Shell","lat":49.90559,"lng":20.6061,"address":"Gnojnik","city":"Gnojnik","services":["lpg","adblue"],"opening_hours":"24/7","p":{"src":"e","n95":6.67,"on":7.7,"n98":8.27}},{"id":"pl_581898715","name":"Circle K","brand":"Circle K","lat":49.89979,"lng":20.81631,"address":"190","city":"Olszyny","services":["lpg"],"p":{"src":"e","n95":6.57,"on":7.6,"lpg":2.89,"n98":8.17}},{"id":"pl_581904450","name":"Circle K","brand":"Circle K","lat":49.97006,"lng":20.59607,"address":"Brzesko","city":"Brzesko","p":{"src":"e","n95":6.57,"on":7.6,"lpg":2.89,"n98":8.17}},{"id":"pl_581905414","name":"Moya","brand":"Moya","lat":49.97673,"lng":20.61486,"address":"Brzesko","city":"Brzesko","p":{"src":"e","n95":6.17,"on":7.2,"lpg":2.89}},{"id":"pl_581905501","name":"Orlen","brand":"Orlen","lat":49.96893,"lng":20.62718,"address":"Krakowska 5","city":"Brzesko","opening_hours":"24/7","p":{"src":"e","n95":6.37,"on":7.4,"lpg":2.89,"n98":7.97}},{"id":"pl_581905964","name":"Stacja paliw","brand":"Stacja paliw","lat":49.98382,"lng":20.6128,"address":"Brzesko","city":"Brzesko","p":{"src":"e","n95":6.32,"on":7.35}},{"id":"pl_581908376","name":"BP","brand":"BP","lat":49.96625,"lng":20.73297,"address":"Dębno","city":"Dębno","services":["lpg"],"opening_hours":"24/7","p":{"src":"e","n95":6.62,"on":7.65,"lpg":2.89,"n98":8.22}},{"id":"pl_581910188","name":"Orlen","brand":"Orlen","lat":49.96466,"lng":20.74168,"services":["lpg"],"opening_hours":"24/7","p":{"src":"e","n95":6.37,"on":7.4,"lpg":2.89,"n98":7.97}},{"id":"pl_581910529","name":"Moya","brand":"Moya","lat":49.96084,"lng":20.78842,"p":{"src":"e","n95":6.17,"on":7.2,"lpg":2.89}},{"id":"pl_583048386","name":"LPG","brand":"LPG","lat":49.90555,"lng":21.05819,"address":"Tuchów","city":"Tuchów","p":{"src":"e","n95":6.32,"on":7.35}},{"id":"pl_584454794","name":"Stacja paliw","brand":"Stacja paliw","lat":50.0108,"lng":20.90154,"address":"Wincentego Witosa","city":"Tarnów","p":{"src":"e","n95":6.32,"on":7.35}},{"id":"pl_584459043","name":"Valdi","brand":"Valdi","lat":49.9971,"lng":20.94791,"address":"Tarnów","city":"Tarnów","p":{"src":"e","n95":6.32,"on":7.35}},{"id":"pl_584459208","name":"Stacja paliw","brand":"Stacja paliw","lat":49.99618,"lng":20.95709,"address":"Tarnów","city":"Tarnów","p":{"src":"e","n95":6.32,"on":7.35}},{"id":"pl_584459614","name":"Stacja paliw","brand":"Stacja paliw","lat":49.99968,"lng":20.96001,"address":"Tarnów","city":"Tarnów","p":{"src":"e","n95":6.32,"on":7.35}},{"id":"pl_584460503","name":"Stacja paliw","brand":"Stacja paliw","lat":49.99747,"lng":20.97039,"address":"Tarnów","city":"Tarnów","p":{"src":"e","n95":6.32,"on":7.35}},{"id":"pl_584460809","name":"Lotos","brand":"Lotos","lat":50.00338,"lng":20.9641,"address":"Krakowska 105","city":"Tarnów","p":{"src":"e","n95":6.37,"on":7.4,"lpg":2.89}},{"id":"pl_584460849","name":"Rzeszutko","brand":"Rzeszutko","lat":50.00087,"lng":20.96863,"address":"Przemysłowa","city":"Tarnów","p":{"src":"e","n95":6.32,"on":7.35}},{"id":"pl_584462097","name":"LPG","brand":"LPG","lat":49.99915,"lng":20.98617,"address":"Tarnów","city":"Tarnów","p":{"src":"e","n95":6.32,"on":7.35}},{"id":"pl_584463159","name":"Pegas","brand":"Pegas","lat":50.00665,"lng":21.00852,"address":"Tarnów","city":"Tarnów","p":{"src":"e","n95":6.32,"on":7.35}},{"id":"pl_584466709","name":"Stacja paliw","brand":"Stacja paliw","lat":50.04152,"lng":20.95925,"address":"Mrozna","city":"Tarnów","p":{"src":"e","n95":6.32,"on":7.35}},{"id":"pl_584467205","name":"Shell","brand":"Shell","lat":50.01462,"lng":20.97477,"address":"Józefa Szujskiego","city":"Tarnów","p":{"src":"e","n95":6.67,"on":7.7,"n98":8.27}},{"id":"pl_584473981","name":"Avia","brand":"Avia","lat":50.03551,"lng":20.9839,"address":"Spokojna","city":"Tarnów","opening_hours":"24/7","p":{"src":"e","n95":6.32,"on":7.35}},{"id":"pl_584478680","name":"BP Akacja","brand":"BP","lat":50.01422,"lng":21.01462,"address":"Lwowska 120/132","city":"Tarnów","services":["lpg"],"opening_hours":"24/7","p":{"src":"e","n95":6.62,"on":7.65,"lpg":2.89,"n98":8.22}},{"id":"pl_584479474","name":"Lotos Optima","brand":"Lotos Optima","lat":50.01267,"lng":21.02452,"address":"Lwowska","city":"Tarnów","p":{"src":"e","n95":6.37,"on":7.4,"lpg":2.89}},{"id":"pl_584482119","name":"Omega Pilzno","brand":"Omega Pilzno","lat":50.0323,"lng":21.01183,"address":"Jana Pawła II","city":"Tarnów","p":{"src":"e","n95":6.32,"on":7.35}},{"id":"pl_587566937","name":"Orlen","brand":"Orlen","lat":53.16779,"lng":18.58347,"services":["lpg"],"opening_hours":"24/7","p":{"src":"e","n95":6.37,"on":7.4,"lpg":2.89,"n98":7.97}},{"id":"pl_587567758","name":"moya","brand":"moya","lat":53.2589,"lng":18.51631,"services":["lpg"],"p":{"src":"e","n95":6.17,"on":7.2,"lpg":2.89}},{"id":"pl_587577109","name":"Moya","brand":"Moya","lat":53.29326,"lng":18.69496,"address":"Wybudowanie Wąbrzeskie 3","city":"Lisewo","services":["lpg","adblue"],"p":{"src":"e","n95":6.17,"on":7.2,"lpg":2.89}},{"id":"pl_587584891","name":"Stacja paliw","brand":"Stacja paliw","lat":53.27574,"lng":18.96636,"address":"Wąbrzeźno","city":"Wąbrzeźno","p":{"src":"e","n95":6.32,"on":7.35}},{"id":"pl_587587023","name":"Stacja paliw","brand":"Stacja paliw","lat":53.37036,"lng":18.93889,"address":"Radzyń Chełmiński","city":"Radzyń Chełmiński","p":{"src":"e","n95":6.32,"on":7.35}},{"id":"pl_587587471","name":"Stacja paliw","brand":"Stacja paliw","lat":53.39699,"lng":18.92829,"p":{"src":"e","n95":6.32,"on":7.35}},{"id":"pl_587588552","name":"LPG","brand":"LPG","lat":53.18992,"lng":19.05771,"p":{"src":"e","n95":6.32,"on":7.35}},{"id":"pl_587596595","name":"Generon","brand":"Generon","lat":53.49014,"lng":18.71809,"p":{"src":"e","n95":6.32,"on":7.35}},{"id":"pl_587596626","name":"LPG","brand":"LPG","lat":53.44099,"lng":18.72568,"address":"Grudziądz","city":"Grudziądz","p":{"src":"e","n95":6.32,"on":7.35}},{"id":"pl_587597109","name":"Amic","brand":"Amic","lat":53.45303,"lng":18.73256,"address":"Południowa","city":"Grudziądz","services":["lpg"],"p":{"src":"e","n95":6.22,"on":7.25,"lpg":2.89}},{"id":"pl_587601599","name":"Auto Gaz","brand":"Auto Gaz","lat":53.48252,"lng":18.75849,"services":["lpg"],"opening_hours":"24/7","p":{"src":"e","n95":6.32,"on":7.35}},{"id":"pl_587602731","name":"PUM","brand":"PUM","lat":53.49214,"lng":18.76552,"address":"Generała Józefa Bema","city":"Grudziądz","p":{"src":"e","n95":6.32,"on":7.35}},{"id":"pl_587603079","name":"Stacja paliw","brand":"Stacja paliw","lat":53.49779,"lng":18.77641,"address":"Karabinierów","city":"Grudziądz","p":{"src":"e","n95":6.32,"on":7.35}},{"id":"pl_589687758","name":"Watis","brand":"Watis","lat":53.07268,"lng":17.82676,"services":["lpg","adblue"],"opening_hours":"24/7","p":{"src":"e","n95":6.32,"on":7.35}},{"id":"pl_589715538","name":"Shell","brand":"Shell","lat":53.04493,"lng":18.00297,"address":"Bydgoska 15A","city":"Brzoza","services":["lpg"],"p":{"src":"e","n95":6.67,"on":7.7,"n98":8.27}},{"id":"pl_589805284","name":"Orlen","brand":"Orlen","lat":53.11208,"lng":18.00815,"address":"Kujawska 71","city":"Bydgoszcz","opening_hours":"PH,Mo-Su 00:00-24:00","p":{"src":"e","n95":6.37,"on":7.4,"lpg":2.89,"n98":7.97}},{"id":"pl_589809130","name":"Shell","brand":"Shell","lat":53.13721,"lng":17.95648,"address":"Grunwaldzka 203","city":"Bydgoszcz","p":{"src":"e","n95":6.67,"on":7.7,"n98":8.27}},{"id":"pl_589817118","name":"Shell","brand":"Shell","lat":53.10754,"lng":18.03687,"address":"Wojska Polskiego 12","city":"Bydgoszcz","p":{"src":"e","n95":6.67,"on":7.7,"n98":8.27}},{"id":"pl_589818336","name":"Circle K","brand":"Circle K","lat":53.10676,"lng":18.04495,"services":["lpg"],"opening_hours":"24/7","p":{"src":"e","n95":6.57,"on":7.6,"lpg":2.89,"n98":8.17}},{"id":"pl_589828954","name":"Olkop","brand":"Olkop","lat":53.11735,"lng":18.07172,"address":"Bydgoszcz","city":"Bydgoszcz","p":{"src":"e","n95":6.32,"on":7.35}},{"id":"pl_589846879","name":"Orlen","brand":"Orlen","lat":53.17155,"lng":18.05192,"address":"Gdańska 252","city":"Bydgoszcz","p":{"src":"e","n95":6.37,"on":7.4,"lpg":2.89,"n98":7.97}},{"id":"pl_589874486","name":"Auchan","brand":"Auchan","lat":53.13505,"lng":18.11461,"address":"Bydgoszcz","city":"Bydgoszcz","services":["lpg"],"p":{"src":"e","n95":6.07,"on":7.1}},{"id":"pl_589878382","name":"Amic","brand":"Amic","lat":53.14686,"lng":18.13064,"address":"Bydgoszcz","city":"Bydgoszcz","p":{"src":"e","n95":6.22,"on":7.25,"lpg":2.89}},{"id":"pl_599276325","name":"Stacja paliw","brand":"Stacja paliw","lat":51.37016,"lng":19.3675,"address":"Bełchatów","city":"Bełchatów","opening_hours":"24/7","p":{"src":"e","n95":6.32,"on":7.35}},{"id":"pl_599461138","name":"Shell","brand":"Shell","lat":53.2702,"lng":18.19561,"services":["lpg"],"p":{"src":"e","n95":6.67,"on":7.7,"n98":8.27}},{"id":"pl_599471366","name":"Lotos","brand":"Lotos","lat":53.49462,"lng":18.43522,"p":{"src":"e","n95":6.37,"on":7.4,"lpg":2.89}},{"id":"pl_599985859","name":"A-Prim","brand":"A-Prim","lat":49.97082,"lng":19.21974,"address":"Beskidzka 15","city":"Grojec","p":{"src":"e","n95":6.32,"on":7.35}},{"id":"pl_600001614","name":"Crab","brand":"Crab","lat":50.04882,"lng":19.21376,"address":"Andrzeja Nideckiego 31","city":"Oświęcim","services":["lpg"],"p":{"src":"e","n95":6.32,"on":7.35}},{"id":"pl_600005142","name":"Circle K","brand":"Circle K","lat":50.03776,"lng":19.23211,"p":{"src":"e","n95":6.57,"on":7.6,"lpg":2.89,"n98":8.17}},{"id":"pl_600007050","name":"Orlen","brand":"Orlen","lat":50.03151,"lng":19.25261,"address":"Chemików 18","p":{"src":"e","n95":6.37,"on":7.4,"lpg":2.89,"n98":7.97}},{"id":"pl_600449240","name":"Polmax","brand":"Polmax","lat":53.00653,"lng":14.34564,"services":["lpg"],"p":{"src":"e","n95":6.32,"on":7.35}},{"id":"pl_603758330","name":"Orlen","brand":"Orlen","lat":53.26258,"lng":15.5454,"address":"Promenada 8","city":"Recz","opening_hours":"24/7","p":{"src":"e","n95":6.37,"on":7.4,"lpg":2.89,"n98":7.97}},{"id":"pl_603760275","name":"Orlen","brand":"Orlen","lat":53.17057,"lng":15.41848,"opening_hours":"24/7","p":{"src":"e","n95":6.37,"on":7.4,"lpg":2.89,"n98":7.97}},{"id":"pl_605057502","name":"Orlen","brand":"Orlen","lat":52.56699,"lng":15.79078,"services":["lpg"],"opening_hours":"24/7","p":{"src":"e","n95":6.37,"on":7.4,"lpg":2.89,"n98":7.97}},{"id":"pl_606256437","name":"Shell","brand":"Shell","lat":52.56333,"lng":14.8092,"address":"3 Lutego 17","city":"Słońsk","p":{"src":"e","n95":6.67,"on":7.7,"n98":8.27}},{"id":"pl_611035607","name":"Q-EL","brand":"Q-EL","lat":52.85287,"lng":14.15048,"services":["lpg"],"p":{"src":"e","n95":6.32,"on":7.35}},{"id":"pl_614415057","name":"Grupa Pegas","brand":"Grupa Pegas","lat":53.38502,"lng":19.92599,"p":{"src":"e","n95":6.32,"on":7.35}},{"id":"pl_624009001","name":"Shell","brand":"Shell","lat":50.31371,"lng":18.77398,"p":{"src":"e","n95":6.67,"on":7.7,"n98":8.27}},{"id":"pl_639321397","name":"Bliska","brand":"Bliska","lat":49.71394,"lng":20.9545,"address":"Bobowa","city":"Bobowa","p":{"src":"e","n95":6.32,"on":7.35}},{"id":"pl_648028941","name":"Stacja Paliw PKS","brand":"Stacja Paliw PKS","lat":52.60856,"lng":15.91964,"p":{"src":"e","n95":6.32,"on":7.35}},{"id":"pl_659570137","name":"Shell","brand":"Shell","lat":50.27199,"lng":19.00807,"opening_hours":"Mo-Fr 07:00-21:00; Sa-Su,PH 08:00-20:00","p":{"src":"e","n95":6.67,"on":7.7,"n98":8.27}},{"id":"pl_672549442","name":"Orlen","brand":"Orlen","lat":50.9269,"lng":17.2987,"services":["lpg"],"opening_hours":"24/7","p":{"src":"e","n95":6.37,"on":7.4,"lpg":2.89,"n98":7.97}},{"id":"pl_683177921","name":"Orlen","brand":"Orlen","lat":51.30533,"lng":20.1145,"address":"Paradyż","city":"Paradyż","p":{"src":"e","n95":6.37,"on":7.4,"lpg":2.89,"n98":7.97}},{"id":"pl_683186783","name":"Stacja LPG","brand":"Stacja LPG","lat":51.53574,"lng":19.995,"address":"Farbiarska","city":"Tomaszów Mazowiecki","p":{"src":"e","n95":6.32,"on":7.35}},{"id":"pl_683193111","name":"BP Tobiasze","brand":"BP","lat":51.57017,"lng":19.95705,"address":"6A","city":"Tobiasze","services":["lpg"],"opening_hours":"24/7","p":{"src":"e","n95":6.62,"on":7.65,"lpg":2.89,"n98":8.22}},{"id":"pl_683196537","name":"PKN Orlen","brand":"Orlen","lat":51.36939,"lng":20.29578,"address":"Oskara Kolberga 2","city":"Opoczno","p":{"src":"e","n95":6.37,"on":7.4,"lpg":2.89,"n98":7.97}},{"id":"pl_683439246","name":"Colo.Colo","brand":"Colo.Colo","lat":50.89419,"lng":14.84638,"p":{"src":"e","n95":6.32,"on":7.35}},{"id":"pl_685489690","name":"Stacja paliw","brand":"Stacja paliw","lat":49.85634,"lng":20.81454,"address":"Zakliczyn","city":"Zakliczyn","p":{"src":"e","n95":6.32,"on":7.35}},{"id":"pl_686236295","name":"Orlen","brand":"Orlen","lat":50.79712,"lng":16.28913,"p":{"src":"e","n95":6.37,"on":7.4,"lpg":2.89,"n98":7.97}},{"id":"pl_686236322","name":"Circle K","brand":"Circle K","lat":50.80456,"lng":16.29371,"address":"Wrocławska 28","city":"Wałbrzych","services":["lpg"],"opening_hours":"24/7","p":{"src":"e","n95":6.57,"on":7.6,"lpg":2.89,"n98":8.17}},{"id":"pl_686812298","name":"Horex","brand":"Horex","lat":51.94474,"lng":14.72545,"p":{"src":"e","n95":6.32,"on":7.35}},{"id":"pl_687701832","name":"Orlen","brand":"Orlen","lat":50.78678,"lng":18.05836,"address":"Opolska 26","city":"Jełowa","services":["lpg"],"p":{"src":"e","n95":6.37,"on":7.4,"lpg":2.89,"n98":7.97}},{"id":"pl_688026362","name":"Gród","brand":"Gród","lat":49.66954,"lng":20.65137,"address":"Marcinkowice","city":"Marcinkowice","p":{"src":"e","n95":6.32,"on":7.35}},{"id":"pl_690706899","name":"Paliv","brand":"Paliv","lat":51.53546,"lng":14.74805,"p":{"src":"e","n95":6.32,"on":7.35}},{"id":"pl_699817049","name":"BENZ + LPG","brand":"BENZ + LPG","lat":51.33901,"lng":23.47943,"address":"Uhrusk","city":"Uhrusk","p":{"src":"e","n95":6.32,"on":7.35}},{"id":"pl_701007185","name":"Stacja paliw","brand":"Stacja paliw","lat":53.11464,"lng":23.1325,"services":["lpg"],"p":{"src":"e","n95":6.32,"on":7.35}},{"id":"pl_701604737","name":"Moya","brand":"Moya","lat":51.5207,"lng":20.56612,"services":["lpg"],"p":{"src":"e","n95":6.17,"on":7.2,"lpg":2.89}},{"id":"pl_701619872","name":"Stacja Paliw Stachurscy","brand":"Stacja Paliw Stachurscy","lat":51.51161,"lng":20.71241,"address":"Łódzka 46","city":"Potworów","services":["lpg"],"opening_hours":"6:00 - 22:00","p":{"src":"e","n95":6.32,"on":7.35}},{"id":"pl_702019365","name":"Moya","brand":"Moya","lat":53.11577,"lng":23.12874,"address":"Składowa 11","city":"Białystok","p":{"src":"e","n95":6.17,"on":7.2,"lpg":2.89}},{"id":"pl_704643024","name":"BP","brand":"BP","lat":52.40668,"lng":16.88901,"services":["lpg"],"opening_hours":"24/7","p":{"src":"e","n95":6.62,"on":7.65,"lpg":2.89,"n98":8.22}},{"id":"pl_705082406","name":"Orlen","brand":"Orlen","lat":52.38763,"lng":16.47588,"services":["lpg","adblue"],"opening_hours":"24/7","p":{"src":"e","n95":6.37,"on":7.4,"lpg":2.89,"n98":7.97}},{"id":"pl_712017926","name":"Pieprzyk","brand":"Pieprzyk","lat":50.92948,"lng":16.68587,"p":{"src":"e","n95":6.32,"on":7.35}},{"id":"pl_713297869","name":"Smart","brand":"Smart","lat":52.84622,"lng":14.13,"opening_hours":"Mo-Su 07:00-19:00","p":{"src":"e","n95":6.32,"on":7.35}},{"id":"pl_716310894","name":"Paliwo","brand":"Paliwo","lat":51.81987,"lng":20.26773,"address":"Kurzeszyn","city":"Kurzeszyn","p":{"src":"e","n95":6.32,"on":7.35}},{"id":"pl_716311106","name":"Orlen","brand":"Orlen","lat":51.77749,"lng":20.09946,"address":"46A","city":"Miłochniewice","services":["lpg"],"opening_hours":"24/7","p":{"src":"e","n95":6.37,"on":7.4,"lpg":2.89,"n98":7.97}},{"id":"pl_717409274","name":"Orlen","brand":"Orlen","lat":50.36639,"lng":22.73958,"address":"Biłgorajska 1","city":"Tarnogród","services":["lpg"],"opening_hours":"24/7","p":{"src":"e","n95":6.37,"on":7.4,"lpg":2.89,"n98":7.97}},{"id":"pl_717436757","name":"Korona Paliwa","brand":"Korona Paliwa","lat":50.36451,"lng":22.68027,"services":["lpg"],"p":{"src":"e","n95":6.32,"on":7.35}},{"id":"pl_718888936","name":"Stacja paliw","brand":"Stacja paliw","lat":53.10089,"lng":23.12216,"p":{"src":"e","n95":6.32,"on":7.35}},{"id":"pl_718917571","name":"Orlen","brand":"Orlen","lat":49.85903,"lng":19.02298,"address":"Warszawska 357","city":"Bielsko-Biała","services":["lpg","adblue"],"opening_hours":"24/7","p":{"src":"e","n95":6.37,"on":7.4,"lpg":2.89,"n98":7.97}},{"id":"pl_722051013","name":"Orlen","brand":"Orlen","lat":51.11425,"lng":17.07096,"address":"wybrzeże Ludwika Pasteura 20","city":"Wrocław","opening_hours":"24/7","p":{"src":"e","n95":6.37,"on":7.4,"lpg":2.89,"n98":7.97}},{"id":"pl_724659012","name":"dp Dyskont paliwowy","brand":"dp Dyskont paliwowy","lat":49.88027,"lng":18.74373,"services":["lpg"],"p":{"src":"e","n95":6.32,"on":7.35}},{"id":"pl_727605072","name":"Orlen","brand":"Orlen","lat":51.14238,"lng":17.09159,"address":"Bolesława Krzywoustego 172","city":"Wrocław","opening_hours":"24/7","p":{"src":"e","n95":6.37,"on":7.4,"lpg":2.89,"n98":7.97}},{"id":"pl_729563727","name":"Orlen","brand":"Orlen","lat":52.25137,"lng":18.9266,"services":["lpg","adblue"],"opening_hours":"24/7","p":{"src":"e","n95":6.37,"on":7.4,"lpg":2.89,"n98":7.97}},{"id":"pl_729619285","name":"Orlen - Bliska","brand":"Orlen","lat":53.83339,"lng":22.38731,"opening_hours":"Mo-Su 06:00-22:00","p":{"src":"e","n95":6.37,"on":7.4,"lpg":2.89,"n98":7.97}},{"id":"pl_730750145","name":"Circle K","brand":"Circle K","lat":51.95076,"lng":19.28494,"address":"Adamówek 16","city":"Ozorków","services":["lpg"],"p":{"src":"e","n95":6.57,"on":7.6,"lpg":2.89,"n98":8.17}},{"id":"pl_731950944","name":"Tank System","brand":"Do uzupełnienia","lat":49.74894,"lng":21.9346,"p":{"src":"e","n95":6.32,"on":7.35}},{"id":"pl_733059207","name":"Shell","brand":"Shell","lat":50.94967,"lng":17.28352,"p":{"src":"e","n95":6.67,"on":7.7,"n98":8.27}},{"id":"pl_737247316","name":"Amic Energy","brand":"Amic","lat":52.40979,"lng":16.97301,"services":["lpg","adblue"],"opening_hours":"24/7","p":{"src":"e","n95":6.22,"on":7.25,"lpg":2.89}},{"id":"pl_740157752","name":"Orlen","brand":"Orlen","lat":49.9831,"lng":20.22911,"p":{"src":"e","n95":6.37,"on":7.4,"lpg":2.89,"n98":7.97}},{"id":"pl_744504173","name":"Orlen","brand":"Orlen","lat":51.14113,"lng":17.09285,"address":"Bolesława Krzywoustego 177","city":"Wrocław","opening_hours":"24/7","p":{"src":"e","n95":6.37,"on":7.4,"lpg":2.89,"n98":7.97}},{"id":"pl_762888479","name":"Orlen","brand":"Orlen","lat":50.7105,"lng":16.00132,"opening_hours":"24/7","p":{"src":"e","n95":6.37,"on":7.4,"lpg":2.89,"n98":7.97}},{"id":"pl_764377186","name":"Shell","brand":"Shell","lat":54.18277,"lng":16.15067,"address":"Syrenki 27","city":"Koszalin","services":["lpg"],"opening_hours":"24/7","p":{"src":"e","n95":6.67,"on":7.7,"n98":8.27}},{"id":"pl_766741350","name":"BP","brand":"BP","lat":51.70983,"lng":19.48894,"services":["lpg"],"opening_hours":"24/7","p":{"src":"e","n95":6.62,"on":7.65,"lpg":2.89,"n98":8.22}},{"id":"pl_766741357","name":"Carrefour","brand":"Carrefour","lat":51.71052,"lng":19.48904,"services":["lpg"],"opening_hours":"Mo-Sa 06:00-22:00; Su 07:00-21:00","p":{"src":"e","n95":6.32,"on":7.35}},{"id":"pl_767319013","name":"LPG-Łódź","brand":"LPG-Łódź","lat":51.75393,"lng":19.57733,"address":"Rokicińska 186A","city":"Łódź","services":["lpg"],"p":{"src":"e","n95":6.32,"on":7.35}},{"id":"pl_767540723","name":"Orlen","brand":"Orlen","lat":51.97821,"lng":19.27437,"p":{"src":"e","n95":6.37,"on":7.4,"lpg":2.89,"n98":7.97}},{"id":"pl_767553067","name":"Orlen","brand":"PKN Orlen","lat":51.95622,"lng":19.30688,"address":"Zgierska 42","city":"Ozorków","services":["lpg"],"opening_hours":"24/7","p":{"src":"e","n95":6.37,"on":7.4,"lpg":2.89,"n98":7.97}},{"id":"pl_767557557","name":"Stacja paliw","brand":"Stacja paliw","lat":51.9468,"lng":19.32239,"p":{"src":"e","n95":6.32,"on":7.35}},{"id":"pl_770305333","name":"BP","brand":"BP","lat":51.95516,"lng":14.74876,"address":"Kresowa 111A","city":"Gubin","services":["lpg"],"opening_hours":"24/7","p":{"src":"e","n95":6.62,"on":7.65,"lpg":2.89,"n98":8.22}},{"id":"pl_771704409","name":"Watis","brand":"Watis","lat":53.15302,"lng":16.7094,"address":"Piła","city":"Piła","p":{"src":"e","n95":6.32,"on":7.35}},{"id":"pl_771704452","name":"PilGas LPG","brand":"PilGas LPG","lat":53.15649,"lng":16.73098,"address":"Piła","city":"Piła","p":{"src":"e","n95":6.32,"on":7.35}},{"id":"pl_771759666","name":"Orlen","brand":"Orlen","lat":53.13498,"lng":16.75316,"address":"Aleja Poznańska 32","city":"Piła","services":["lpg"],"opening_hours":"24/7","p":{"src":"e","n95":6.37,"on":7.4,"lpg":2.89,"n98":7.97}},{"id":"pl_773005763","name":"Tanco-Oil (nieczynna)","brand":"Tanco-Oil (nieczynna)","lat":51.65337,"lng":19.38961,"p":{"src":"e","n95":6.32,"on":7.35}},{"id":"pl_773216196","name":"Circle K","brand":"Circle K","lat":51.93118,"lng":15.48475,"address":"Stefana Wyszyńskiego 24","city":"Zielona Góra","p":{"src":"r","n95":6.34,"on":7.6,"lpg":2.89,"n98":8.17,"at":"2026-05-10T09:22"}},{"id":"pl_778761439","name":"Orlen","brand":"Orlen","lat":50.33294,"lng":22.3358,"services":["lpg"],"p":{"src":"e","n95":6.37,"on":7.4,"lpg":2.89,"n98":7.97}},{"id":"pl_791068582","name":"Moya","brand":"Moya","lat":50.32345,"lng":19.16552,"p":{"src":"e","n95":6.17,"on":7.2,"lpg":2.89}},{"id":"pl_793552425","name":"Orlen","brand":"Orlen","lat":51.2095,"lng":16.13092,"address":"Ignacego Domejki 1a","city":"Legnica","p":{"src":"e","n95":6.37,"on":7.4,"lpg":2.89,"n98":7.97}},{"id":"pl_805374024","name":"1-2-3","brand":"1-2-3","lat":50.32824,"lng":19.2228,"services":["lpg"],"p":{"src":"e","n95":6.32,"on":7.35}},{"id":"pl_830049419","name":"Shell","brand":"Shell","lat":50.01667,"lng":18.47715,"services":["lpg"],"p":{"src":"e","n95":6.67,"on":7.7,"n98":8.27}},{"id":"pl_836611982","name":"Stacja paliw","brand":"Stacja paliw","lat":50.64791,"lng":18.99741,"p":{"src":"e","n95":6.32,"on":7.35}},{"id":"pl_836612272","name":"AMIC Energy","brand":"Amic","lat":50.37164,"lng":18.89491,"address":"Strzelców Bytomskich 66F","city":"Bytom","services":["lpg"],"opening_hours":"24/7","p":{"src":"e","n95":6.22,"on":7.25,"lpg":2.89}},{"id":"pl_836794943","name":"Orlen","brand":"Orlen","lat":51.68055,"lng":19.47556,"services":["lpg","adblue"],"opening_hours":"24/7","p":{"src":"e","n95":6.37,"on":7.4,"lpg":2.89,"n98":7.97}},{"id":"pl_836795064","name":"Orlen","brand":"Orlen","lat":51.68036,"lng":19.47693,"services":["lpg","adblue"],"opening_hours":"24/7","p":{"src":"e","n95":6.37,"on":7.4,"lpg":2.89,"n98":7.97}},{"id":"pl_836795145","name":"Shell","brand":"Shell","lat":51.65866,"lng":19.47852,"services":["lpg"],"p":{"src":"e","n95":6.67,"on":7.7,"n98":8.27}},{"id":"pl_836795187","name":"Orlen","brand":"Orlen","lat":51.57252,"lng":19.58008,"address":"Trybunalska 4","city":"Kruszów","opening_hours":"24/7","p":{"src":"e","n95":6.37,"on":7.4,"lpg":2.89,"n98":7.97}},{"id":"pl_838469217","name":"Shell","brand":"Shell","lat":50.27138,"lng":19.06598,"address":"Aleja Walentego Roździeńskiego 210","city":"Katowice","services":["lpg"],"opening_hours":"24/7","p":{"src":"e","n95":6.67,"on":7.7,"n98":8.27}},{"id":"pl_838793899","name":"Stacja paliw","brand":"Stacja paliw","lat":54.66221,"lng":17.20797,"p":{"src":"e","n95":6.32,"on":7.35}},{"id":"pl_841566375","name":"Moya","brand":"Moya","lat":54.4527,"lng":16.97135,"address":"Szczecińska 14","city":"Kobylnica","services":["lpg"],"opening_hours":"24/7","p":{"src":"e","n95":6.17,"on":7.2,"lpg":2.89}},{"id":"pl_841566377","name":"Shell","brand":"Shell","lat":54.45915,"lng":16.99512,"address":"Szczecińska 36h","city":"Słupsk","opening_hours":"24/7","p":{"src":"e","n95":6.67,"on":7.7,"n98":8.27}},{"id":"pl_841569035","name":"BP","brand":"BP","lat":54.16026,"lng":15.56534,"services":["lpg"],"opening_hours":"24/7","p":{"src":"e","n95":6.62,"on":7.65,"lpg":2.89,"n98":8.22}},{"id":"pl_841646689","name":"BP Garczegorze","brand":"BP Garczegorze","lat":54.59138,"lng":17.7062,"p":{"src":"e","n95":6.62,"on":7.65,"lpg":2.89,"n98":8.22}},{"id":"pl_842874909","name":"BP","brand":"BP","lat":50.8201,"lng":19.14044,"address":"Częstochowa","city":"Częstochowa","services":["lpg"],"opening_hours":"24/7","p":{"src":"e","n95":6.62,"on":7.65,"lpg":2.89,"n98":8.22}},{"id":"pl_842883789","name":"Intank","brand":"Intank","lat":53.12093,"lng":18.62535,"address":"41","city":"Ostaszewo","p":{"src":"e","n95":6.32,"on":7.35}},{"id":"pl_843877820","name":"Wojkowice","brand":"Wojkowice","lat":50.97903,"lng":17.07082,"p":{"src":"e","n95":6.32,"on":7.35}},{"id":"pl_846881629","name":"Shell","brand":"Shell","lat":52.32087,"lng":17.56124,"services":["lpg","adblue"],"p":{"src":"e","n95":6.67,"on":7.7,"n98":8.27}},{"id":"pl_848212706","name":"Paliwa BAQ","brand":"PKN Orlen","lat":50.05075,"lng":17.79246,"p":{"src":"e","n95":6.37,"on":7.4,"lpg":2.89,"n98":7.97}},{"id":"pl_848447320","name":"BP","brand":"BP","lat":52.14643,"lng":16.28358,"services":["lpg"],"opening_hours":"24/7","p":{"src":"e","n95":6.62,"on":7.65,"lpg":2.89,"n98":8.22}},{"id":"pl_848447341","name":"Orlen","brand":"Orlen","lat":52.13557,"lng":16.27067,"services":["lpg","adblue"],"p":{"src":"e","n95":6.37,"on":7.4,"lpg":2.89,"n98":7.97}},{"id":"pl_848447375","name":"Circle K","brand":"Circle K","lat":52.10792,"lng":16.12628,"services":["lpg"],"opening_hours":"24/7","p":{"src":"e","n95":6.57,"on":7.6,"lpg":2.89,"n98":8.17}},{"id":"pl_850633951","name":"Orlen","brand":"Orlen","lat":52.51435,"lng":16.57407,"address":"Topolowa 1","city":"Kaźmierz","services":["lpg"],"p":{"src":"e","n95":6.37,"on":7.4,"lpg":2.89,"n98":7.97}},{"id":"pl_860542800","name":"GTD Tank","brand":"GTD Tank","lat":51.39333,"lng":23.40636,"address":"Chełmska 44","city":"Hańsk Pierwszy","services":["lpg"],"p":{"src":"e","n95":6.32,"on":7.35}},{"id":"pl_861057799","name":"Shell","brand":"Shell","lat":50.24704,"lng":19.12417,"opening_hours":"24/7","p":{"src":"e","n95":6.67,"on":7.7,"n98":8.27}},{"id":"pl_861062977","name":"Amic","brand":"Amic","lat":50.22556,"lng":19.22711,"opening_hours":"24/7","p":{"src":"e","n95":6.22,"on":7.25,"lpg":2.89}},{"id":"pl_861674484","name":"Orlen","brand":"Orlen","lat":50.67476,"lng":17.93199,"p":{"src":"e","n95":6.37,"on":7.4,"lpg":2.89,"n98":7.97}},{"id":"pl_864943428","name":"Amic","brand":"Amic","lat":51.94555,"lng":19.32443,"p":{"src":"e","n95":6.22,"on":7.25,"lpg":2.89}},{"id":"pl_864943548","name":"Pieprzyk","brand":"Pieprzyk","lat":52.02445,"lng":19.22659,"services":["lpg","adblue"],"opening_hours":"24/7","p":{"src":"e","n95":6.32,"on":7.35}},{"id":"pl_864943721","name":"Amic","brand":"Amic Energy","lat":51.80048,"lng":19.42534,"p":{"src":"e","n95":6.22,"on":7.25,"lpg":2.89}},{"id":"pl_864943775","name":"Shell","brand":"Shell","lat":51.82745,"lng":19.42782,"p":{"src":"e","n95":6.67,"on":7.7,"n98":8.27}},{"id":"pl_864944375","name":"BP","brand":"BP","lat":51.75018,"lng":19.4363,"services":["lpg"],"p":{"src":"e","n95":6.62,"on":7.65,"lpg":2.89,"n98":8.22}},{"id":"pl_865222315","name":"Circle K","brand":"Circle K","lat":53.09058,"lng":18.62155,"address":"Gdańska 6A","city":"Łysomice","services":["lpg"],"opening_hours":"24/7","p":{"src":"e","n95":6.57,"on":7.6,"lpg":2.89,"n98":8.17}},{"id":"pl_865222354","name":"BP","brand":"BP","lat":53.02471,"lng":18.66441,"address":"Szosa Lubicka 109","city":"Toruń","services":["lpg"],"opening_hours":"24/7","p":{"src":"e","n95":6.62,"on":7.65,"lpg":2.89,"n98":8.22}},{"id":"pl_865280013","name":"Orlen","brand":"Orlen","lat":50.91725,"lng":19.33472,"address":"Częstochowska 1a","city":"Kłomnice","services":["lpg"],"p":{"src":"e","n95":6.37,"on":7.4,"lpg":2.89,"n98":7.97}},{"id":"pl_867420264","name":"Orlen","brand":"Orlen","lat":53.64416,"lng":18.72472,"address":"Bydgoska 29","city":"Nowe","services":["lpg"],"p":{"src":"e","n95":6.37,"on":7.4,"lpg":2.89,"n98":7.97}},{"id":"pl_872543192","name":"Moya express","brand":"Moya","lat":51.77461,"lng":19.48192,"address":"Stefana Jaracza 95/97","city":"Łódź","opening_hours":"24/7","p":{"src":"e","n95":6.17,"on":7.2,"lpg":2.89}},{"id":"pl_872553781","name":"Stacja paliw","brand":"Stacja paliw","lat":52.00224,"lng":19.7952,"p":{"src":"e","n95":6.32,"on":7.35}},{"id":"pl_879605960","name":"Orlen","brand":"Orlen","lat":49.96896,"lng":20.30816,"services":["lpg","adblue"],"opening_hours":"24/7","p":{"src":"e","n95":6.37,"on":7.4,"lpg":2.89,"n98":7.97}},{"id":"pl_882007477","name":"Stacja paliw","brand":"Stacja paliw","lat":49.62869,"lng":20.69148,"services":["lpg"],"p":{"src":"e","n95":6.32,"on":7.35}},{"id":"pl_883261940","name":"Shell","brand":"Shell","lat":51.15868,"lng":16.172,"services":["lpg"],"opening_hours":"24/7","p":{"src":"e","n95":6.67,"on":7.7,"n98":8.27}},{"id":"pl_883536039","name":"Olma Oil","brand":"Olma Oil","lat":49.63318,"lng":20.69616,"address":"Dojazdowa 7","city":"Nowy Sącz","services":["lpg"],"opening_hours":"24/7","p":{"src":"e","n95":6.32,"on":7.35}},{"id":"pl_884272466","name":"BP Nowy Sącz","brand":"BP","lat":49.62196,"lng":20.71952,"address":"Generała Władysława Beliny Prażmowskiego 9","city":"Nowy Sącz","services":["lpg"],"opening_hours":"24/7","p":{"src":"e","n95":6.62,"on":7.65,"lpg":2.89,"n98":8.22}},{"id":"pl_885440966","name":"Orlen","brand":"Orlen","lat":49.71664,"lng":19.68908,"services":["lpg"],"p":{"src":"e","n95":6.37,"on":7.4,"lpg":2.89,"n98":7.97}},{"id":"pl_885441706","name":"Orlen","brand":"Orlen","lat":49.75151,"lng":19.60568,"address":"Wadowicka 2","services":["lpg"],"opening_hours":"24/7","p":{"src":"e","n95":6.37,"on":7.4,"lpg":2.89,"n98":7.97}},{"id":"pl_890485223","name":"Pieprzyk","brand":"Pieprzyk","lat":50.71585,"lng":16.65146,"p":{"src":"e","n95":6.32,"on":7.35}},{"id":"pl_890669096","name":"LPG","brand":"LPG","lat":51.10612,"lng":22.50069,"services":["lpg"],"p":{"src":"e","n95":6.32,"on":7.35}},{"id":"pl_890977426","name":"Pieprzyk","brand":"Pieprzyk","lat":51.43579,"lng":15.10103,"services":["lpg"],"opening_hours":"24/7","p":{"src":"e","n95":6.32,"on":7.35}},{"id":"pl_891522832","name":"CNG Auto","brand":"CNG Auto","lat":51.21209,"lng":22.65019,"p":{"src":"e","n95":6.32,"on":7.35}},{"id":"pl_891871350","name":"107-ka","brand":"107-ka","lat":52.10338,"lng":19.9024,"p":{"src":"e","n95":6.32,"on":7.35}},{"id":"pl_892995834","name":"Kristal","brand":"Kristal","lat":52.12778,"lng":19.90966,"p":{"src":"e","n95":6.32,"on":7.35}},{"id":"pl_900452986","name":"Orlen","brand":"Orlen","lat":52.11712,"lng":19.96596,"address":"Poznańska","city":"Łowicz","opening_hours":"24/7","p":{"src":"e","n95":6.37,"on":7.4,"lpg":2.89,"n98":7.97}},{"id":"pl_900453253","name":"BP","brand":"BP","lat":52.11773,"lng":19.96797,"services":["lpg"],"opening_hours":"24/7","p":{"src":"e","n95":6.62,"on":7.65,"lpg":2.89,"n98":8.22}},{"id":"pl_900483133","name":"Moya","brand":"Moya","lat":52.11965,"lng":19.93581,"address":"Poznańska 112","city":"Łowicz","services":["lpg"],"p":{"src":"e","n95":6.17,"on":7.2,"lpg":2.89}},{"id":"pl_902463705","name":"Circle K","brand":"Circle K","lat":52.53915,"lng":17.60771,"services":["lpg"],"opening_hours":"24/7","p":{"src":"e","n95":6.57,"on":7.6,"lpg":2.89,"n98":8.17}},{"id":"pl_904631765","name":"Shell","brand":"Shell","lat":52.53711,"lng":17.60919,"services":["lpg"],"p":{"src":"e","n95":6.67,"on":7.7,"n98":8.27}},{"id":"pl_906705721","name":"Orion","brand":"Orion","lat":49.83243,"lng":20.29577,"p":{"src":"e","n95":6.32,"on":7.35}},{"id":"pl_907444817","name":"Stacja paliw","brand":"Stacja paliw","lat":52.53718,"lng":17.60845,"p":{"src":"e","n95":6.32,"on":7.35}},{"id":"pl_921817829","name":"Orlen","brand":"Orlen","lat":51.89004,"lng":18.9814,"p":{"src":"e","n95":6.37,"on":7.4,"lpg":2.89,"n98":7.97}},{"id":"pl_927296610","name":"Stacja paliw","brand":"Stacja paliw","lat":52.33221,"lng":14.8243,"p":{"src":"e","n95":6.32,"on":7.35}},{"id":"pl_931256077","name":"MOL","brand":"MOL","lat":50.05735,"lng":20.00273,"services":["lpg"],"opening_hours":"24/7","p":{"src":"e","n95":6.32,"on":7.35}},{"id":"pl_935328465","name":"Lotos Optima","brand":"Lotos Optima","lat":50.94587,"lng":14.92091,"services":["lpg"],"opening_hours":"24/7","p":{"src":"e","n95":6.37,"on":7.4,"lpg":2.89}},{"id":"pl_938754387","name":"Hil Gas","brand":"Hil Gas","lat":52.53189,"lng":17.61212,"p":{"src":"e","n95":6.32,"on":7.35}},{"id":"pl_938891186","name":"Orlen","brand":"Orlen","lat":50.07276,"lng":20.02912,"address":"10A","city":"Kraków","opening_hours":"24/7","p":{"src":"e","n95":6.37,"on":7.4,"lpg":2.89,"n98":7.97}},{"id":"pl_942778836","name":"TERA","brand":"TERA","lat":52.34707,"lng":16.52788,"p":{"src":"e","n95":6.32,"on":7.35}},{"id":"pl_942778837","name":"Orlen","brand":"Orlen","lat":52.36533,"lng":16.53493,"services":["lpg"],"opening_hours":"24/7","p":{"src":"e","n95":6.37,"on":7.4,"lpg":2.89,"n98":7.97}},{"id":"pl_954439457","name":"BP","brand":"BP","lat":50.4623,"lng":19.0809,"address":"Transportowa 2","city":"Pyrzowice","services":["lpg"],"opening_hours":"24/7","p":{"src":"e","n95":6.62,"on":7.65,"lpg":2.89,"n98":8.22}},{"id":"pl_957226395","name":"Amic","brand":"Amic Energy","lat":51.84375,"lng":16.59355,"services":["lpg"],"opening_hours":"24/7","p":{"src":"e","n95":6.22,"on":7.25,"lpg":2.89}},{"id":"pl_958561587","name":"Orlen","brand":"Orlen","lat":51.85598,"lng":16.57801,"services":["lpg"],"opening_hours":"24/7","p":{"src":"e","n95":6.37,"on":7.4,"lpg":2.89,"n98":7.97}},{"id":"pl_958735996","name":"BP","brand":"BP","lat":51.85053,"lng":16.56969,"services":["lpg"],"opening_hours":"24/7","p":{"src":"e","n95":6.62,"on":7.65,"lpg":2.89,"n98":8.22}},{"id":"pl_961605285","name":"Orlen","brand":"Orlen","lat":49.54441,"lng":20.40435,"services":["lpg"],"p":{"src":"e","n95":6.37,"on":7.4,"lpg":2.89,"n98":7.97}},{"id":"pl_961661170","name":"Auto Eko Gaz","brand":"Auto Eko Gaz","lat":49.59314,"lng":20.31316,"services":["lpg"],"opening_hours":"24/7","p":{"src":"e","n95":6.32,"on":7.35}},{"id":"pl_961682563","name":"Partner","brand":"Partner","lat":49.676,"lng":20.06378,"p":{"src":"e","n95":6.32,"on":7.35}},{"id":"pl_965888686","name":"Shell","brand":"Shell","lat":49.86561,"lng":19.90901,"address":"Jawornik","city":"Jawornik","services":["lpg"],"p":{"src":"e","n95":6.67,"on":7.7,"n98":8.27}},{"id":"pl_965916866","name":"Orlen","brand":"Orlen","lat":49.77115,"lng":19.64493,"services":["lpg"],"p":{"src":"e","n95":6.37,"on":7.4,"lpg":2.89,"n98":7.97}},{"id":"pl_967761059","name":"Orlen","brand":"Orlen","lat":49.87792,"lng":19.79615,"services":["lpg"],"opening_hours":"24/7","p":{"src":"e","n95":6.37,"on":7.4,"lpg":2.89,"n98":7.97}},{"id":"pl_967773832","name":"Orlen","brand":"Orlen","lat":51.16103,"lng":16.17014,"p":{"src":"e","n95":6.37,"on":7.4,"lpg":2.89,"n98":7.97}},{"id":"pl_967777742","name":"Auchan","brand":"Auchan","lat":51.18421,"lng":16.16858,"p":{"src":"e","n95":6.07,"on":7.1}},{"id":"pl_973130447","name":"Stacja Paliw","brand":"Stacja Paliw","lat":50.57271,"lng":21.94173,"p":{"src":"e","n95":6.32,"on":7.35}},{"id":"pl_976668310","name":"Oaza","brand":"Independent","lat":49.73964,"lng":19.10261,"services":["lpg"],"p":{"src":"e","n95":6.32,"on":7.35}},{"id":"pl_976855975","name":"Węgrzyn","brand":"Węgrzyn","lat":49.94402,"lng":20.0381,"p":{"src":"e","n95":6.32,"on":7.35}},{"id":"pl_987834435","name":"Stacja paliw","brand":"Stacja paliw","lat":49.58269,"lng":20.61059,"p":{"src":"e","n95":6.32,"on":7.35}},{"id":"pl_987848479","name":"Lukoil","brand":"Lukoil","lat":49.6956,"lng":20.43952,"services":["lpg"],"p":{"src":"e","n95":6.32,"on":7.35}},{"id":"pl_988755866","name":"Corekt","brand":"Corekt","lat":51.99324,"lng":19.78113,"p":{"src":"e","n95":6.32,"on":7.35}},{"id":"pl_988755884","name":"Orlen","brand":"Orlen","lat":52.04073,"lng":19.87586,"p":{"src":"e","n95":6.37,"on":7.4,"lpg":2.89,"n98":7.97}},{"id":"pl_989981747","name":"Moya","brand":"Moya","lat":52.59651,"lng":20.79697,"services":["lpg"],"p":{"src":"e","n95":6.17,"on":7.2,"lpg":2.89}},{"id":"pl_991509792","name":"Faraon","brand":"Faraon","lat":52.36242,"lng":14.56466,"p":{"src":"e","n95":6.32,"on":7.35}},{"id":"pl_993912064","name":"Stacja paliw","brand":"Stacja paliw","lat":49.55455,"lng":20.55791,"p":{"src":"e","n95":6.32,"on":7.35}},{"id":"pl_993927577","name":"Orlen","brand":"Orlen","lat":50.04447,"lng":20.21758,"p":{"src":"e","n95":6.37,"on":7.4,"lpg":2.89,"n98":7.97}},{"id":"pl_993936235","name":"Stacja paliw","brand":"Stacja paliw","lat":50.20942,"lng":20.19098,"services":["lpg"],"p":{"src":"e","n95":6.32,"on":7.35}},{"id":"pl_993936238","name":"Stacja paliw","brand":"Stacja paliw","lat":50.20492,"lng":20.20819,"p":{"src":"e","n95":6.32,"on":7.35}},{"id":"pl_1000799982","name":"BiPetrol","brand":"BiPetrol","lat":52.35188,"lng":14.63654,"p":{"src":"e","n95":6.32,"on":7.35}},{"id":"pl_1022560313","name":"Lotos","brand":"Lotos","lat":51.73657,"lng":20.75742,"p":{"src":"e","n95":6.37,"on":7.4,"lpg":2.89}},{"id":"pl_1025501750","name":"Shell","brand":"Shell","lat":51.13874,"lng":17.02829,"opening_hours":"24/7","p":{"src":"e","n95":6.67,"on":7.7,"n98":8.27}},{"id":"pl_1031473954","name":"Paliwo","brand":"Paliwo","lat":49.64361,"lng":20.97445,"address":"Biała Niżna","city":"Biała Niżna","p":{"src":"e","n95":6.32,"on":7.35}},